$GNRMC,114623.00,A,4503.72099,N,00739.31393,E,1.384,,240524,,,D,V*18
$GNVTG,,T,,M,1.384,N,2.563,K,D*34
$GNGGA,114623.00,4503.72099,N,00739.31393,E,2,10,1.16,265.5,M,47.2,M,,0000*41
$GNGSA,A,3,21,08,23,02,16,26,,,,,,,2.18,1.16,1.85,1*0B
$GNGSA,A,3,75,85,,,,,,,,,,,2.18,1.16,1.85,2*0C
$GNGSA,A,3,13,,,,,,,,,,,,2.18,1.16,1.85,3*00
$GNGSA,A,3,23,,,,,,,,,,,,2.18,1.16,1.85,4*04
$GPGSV,2,1,06,02,14,259,13,08,54,305,17,16,44,194,10,21,29,262,13,1*65
$GPGSV,2,2,06,23,43,056,16,26,12,176,14,1*62
$GPGSV,2,1,05,15,03,028,,18,10,066,,27,84,067,,36,36,158,,0*62
$GPGSV,2,2,05,36,36,158,,0*5C
$GLGSV,1,1,03,70,07,161,20,75,41,277,22,85,42,297,20,1*4F
$GLGSV,2,1,06,68,27,041,,69,38,101,,74,22,215,,76,14,336,,0*71
$GLGSV,2,2,06,76,14,336,,83,05,078,,0*7C
$GAGSV,1,1,01,13,78,319,09,7*4D
$GAGSV,2,1,07,03,16,073,,05,05,026,,08,10,121,,15,37,059,,0*73
$GAGSV,2,2,07,15,37,059,,21,57,244,,26,30,256,,0*4A
$GBGSV,1,1,01,23,21,228,12,1*4E
$GBGSV,1,1,01,23,21,228,07,3*48
$GNGLL,4503.72099,N,00739.31393,E,114623.00,A,D*70
$GNRMC,114623.20,A,4503.72061,N,00739.31405,E,1.627,,240524,,,D,V*19
$GNVTG,,T,,M,1.627,N,3.014,K,D*3C
$GNGGA,114623.20,4503.72061,N,00739.31405,E,2,09,1.19,266.3,M,47.2,M,,0000*4E
$GNGSA,A,3,21,08,23,02,16,26,,,,,,,2.52,1.19,2.22,1*04
$GNGSA,A,3,75,85,,,,,,,,,,,2.52,1.19,2.22,2*03
$GNGSA,A,3,,,,,,,,,,,,,2.52,1.19,2.22,3*0D
$GNGSA,A,3,23,,,,,,,,,,,,2.52,1.19,2.22,4*0B
$GPGSV,2,1,06,02,14,259,16,08,54,305,17,16,44,194,09,21,29,262,12,1*69
$GPGSV,2,2,06,23,43,056,16,26,12,176,12,1*64
$GPGSV,2,1,05,15,03,028,,18,10,066,,27,84,067,,36,36,158,,0*62
$GPGSV,2,2,05,36,36,158,,0*5C
$GLGSV,1,1,03,70,07,161,20,75,41,277,22,85,42,297,20,1*4F
$GLGSV,2,1,06,68,27,041,,69,38,101,,74,22,215,,76,14,336,,0*71
$GLGSV,2,2,06,76,14,336,,83,05,078,,0*7C
$GAGSV,1,1,01,13,78,319,06,7*42
$GAGSV,2,1,07,03,16,073,,05,05,026,,08,10,121,,15,37,059,,0*73
$GAGSV,2,2,07,15,37,059,,21,57,244,,26,30,256,,0*4A
$GBGSV,1,1,01,23,21,228,12,1*4E
$GBGSV,1,1,01,23,21,228,07,3*48
$GNGLL,4503.72061,N,00739.31405,E,114623.20,A,D*7D
$GNRMC,114623.40,A,4503.72045,N,00739.31410,E,0.931,,240524,,,D,V*14
$GNVTG,,T,,M,0.931,N,1.724,K,D*33
$GNGGA,114623.40,4503.72045,N,00739.31410,E,2,09,1.19,266.4,M,47.2,M,,0000*4D
$GNGSA,A,3,21,08,23,02,16,26,,,,,,,2.52,1.19,2.22,1*04
$GNGSA,A,3,75,85,,,,,,,,,,,2.52,1.19,2.22,2*03
$GNGSA,A,3,,,,,,,,,,,,,2.52,1.19,2.22,3*0D
$GNGSA,A,3,23,,,,,,,,,,,,2.52,1.19,2.22,4*0B
$GPGSV,2,1,06,02,14,259,16,08,54,305,17,16,44,194,09,21,29,262,12,1*69
$GPGSV,2,2,06,23,43,056,16,26,12,176,12,1*64
$GPGSV,2,1,05,15,03,028,,18,10,066,,27,84,067,,36,36,158,,0*62
$GPGSV,2,2,05,36,36,158,,0*5C
$GLGSV,1,1,02,75,41,277,22,85,42,297,21,1*7B
$GLGSV,2,1,07,68,27,041,,69,38,101,,70,07,161,,74,22,215,,0*74
$GLGSV,2,2,07,74,22,215,,76,14,336,,83,05,078,,0*48
$GAGSV,1,1,01,13,78,319,06,7*42
$GAGSV,2,1,07,03,16,073,,05,05,026,,08,10,121,,15,37,059,,0*73
$GAGSV,2,2,07,15,37,059,,21,57,244,,26,30,256,,0*4A
$GBGSV,1,1,01,23,21,228,12,1*4E
$GBGSV,1,1,01,23,21,228,08,3*47
$GNGLL,4503.72045,N,00739.31410,E,114623.40,A,D*79
$GNRMC,114623.60,A,4503.72039,N,00739.31415,E,0.164,,240524,,,D,V*10
$GNVTG,,T,,M,0.164,N,0.303,K,D*3B
$GNGGA,114623.60,4503.72039,N,00739.31415,E,2,09,1.19,266.0,M,47.2,M,,0000*45
$GNGSA,A,3,21,08,23,02,16,26,,,,,,,2.52,1.19,2.22,1*04
$GNGSA,A,3,75,85,,,,,,,,,,,2.52,1.19,2.22,2*03
$GNGSA,A,3,,,,,,,,,,,,,2.52,1.19,2.22,3*0D
$GNGSA,A,3,23,,,,,,,,,,,,2.52,1.19,2.22,4*0B
$GPGSV,2,1,06,02,14,259,11,08,54,305,18,16,44,194,12,21,29,262,12,1*6B
$GPGSV,2,2,06,23,43,056,16,26,12,176,09,1*6E
$GPGSV,2,1,05,15,03,028,,18,10,066,,27,84,067,,36,36,158,,0*62
$GPGSV,2,2,05,36,36,158,,0*5C
$GLGSV,1,1,02,75,41,277,22,85,42,297,21,1*7B
$GLGSV,2,1,07,68,27,041,,69,38,101,,70,07,161,,74,22,215,,0*74
$GLGSV,2,2,07,74,22,215,,76,14,336,,83,05,078,,0*48
$GAGSV,1,1,01,13,78,319,05,7*41
$GAGSV,2,1,07,03,16,073,,05,05,026,,08,10,121,,15,37,059,,0*73
$GAGSV,2,2,07,15,37,059,,21,57,244,,26,30,256,,0*4A
$GBGSV,1,1,01,23,21,228,12,1*4E
$GBGSV,1,1,01,23,21,228,08,3*47
$GNGLL,4503.72039,N,00739.31415,E,114623.60,A,D*75
$GNRMC,114623.80,A,4503.72010,N,00739.31445,E,2.284,,240524,,,D,V*1F
$GNVTG,,T,,M,2.284,N,4.230,K,D*31
$GNGGA,114623.80,4503.72010,N,00739.31445,E,2,09,1.19,266.2,M,47.2,M,,0000*47
$GNGSA,A,3,21,08,23,02,16,26,,,,,,,2.52,1.19,2.22,1*04
$GNGSA,A,3,75,85,,,,,,,,,,,2.52,1.19,2.22,2*03
$GNGSA,A,3,,,,,,,,,,,,,2.52,1.19,2.22,3*0D
$GNGSA,A,3,23,,,,,,,,,,,,2.52,1.19,2.22,4*0B
$GPGSV,2,1,06,02,14,259,11,08,54,305,18,16,44,194,12,21,29,262,12,1*6B
$GPGSV,2,2,06,23,43,056,16,26,12,176,09,1*6E
$GPGSV,2,1,05,15,03,028,,18,10,066,,27,84,067,,36,36,158,,0*62
$GPGSV,2,2,05,36,36,158,,0*5C
$GLGSV,1,1,02,75,41,277,22,85,42,297,20,1*7A
$GLGSV,2,1,07,68,27,041,,69,38,101,,70,07,161,,74,22,215,,0*74
$GLGSV,2,2,07,74,22,215,,76,14,336,,83,05,078,,0*48
$GAGSV,1,1,01,13,78,319,05,7*41
$GAGSV,2,1,07,03,16,073,,05,05,026,,08,10,121,,15,37,059,,0*73
$GAGSV,2,2,07,15,37,059,,21,57,244,,26,30,256,,0*4A
$GBGSV,1,1,01,23,21,228,12,1*4E
$GBGSV,1,1,01,23,21,228,08,3*47
$GNGLL,4503.72010,N,00739.31445,E,114623.80,A,D*75
$GNRMC,114624.00,A,4503.71998,N,00739.31465,E,2.080,,240524,,,D,V*1E
$GNVTG,,T,,M,2.080,N,3.852,K,D*3E
$GNGGA,114624.00,4503.71998,N,00739.31465,E,2,09,1.18,266.5,M,47.2,M,,0000*46
$GNGSA,A,3,08,23,02,16,26,,,,,,,,2.20,1.18,1.85,1*0D
$GNGSA,A,3,75,85,,,,,,,,,,,2.20,1.18,1.85,2*09
$GNGSA,A,3,13,,,,,,,,,,,,2.20,1.18,1.85,3*05
$GNGSA,A,3,23,,,,,,,,,,,,2.20,1.18,1.85,4*01
$GPGSV,2,1,06,02,14,259,13,08,54,305,18,16,44,194,08,21,29,262,06,1*67
$GPGSV,2,2,06,23,43,056,16,26,12,176,10,1*66
$GPGSV,2,1,05,15,03,028,,18,10,066,,27,84,067,,36,36,158,,0*62
$GPGSV,2,2,05,36,36,158,,0*5C
$GLGSV,1,1,02,75,41,277,22,85,42,297,21,1*7B
$GLGSV,2,1,07,68,27,041,,69,38,101,,70,07,161,,74,22,215,,0*74
$GLGSV,2,2,07,74,22,215,,76,14,336,,83,05,078,,0*48
$GAGSV,1,1,01,13,78,319,09,7*4D
$GAGSV,2,1,07,03,16,073,,05,05,026,,08,10,121,,15,37,059,,0*73
$GAGSV,2,2,07,15,37,059,,21,57,244,,26,30,256,,0*4A
$GBGSV,1,1,01,23,21,228,11,1*4D
$GBGSV,1,1,01,23,21,228,08,3*47
$GNGLL,4503.71998,N,00739.31465,E,114624.00,A,D*72
$GNRMC,114624.20,A,4503.71998,N,00739.31485,E,1.622,,240524,,,D,V*1F
$GNVTG,,T,,M,1.622,N,3.004,K,D*38
$GNGGA,114624.20,4503.71998,N,00739.31485,E,2,09,1.18,265.6,M,47.2,M,,0000*4A
$GNGSA,A,3,08,23,02,16,26,,,,,,,,2.20,1.18,1.85,1*0D
$GNGSA,A,3,75,85,,,,,,,,,,,2.20,1.18,1.85,2*09
$GNGSA,A,3,13,,,,,,,,,,,,2.20,1.18,1.85,3*05
$GNGSA,A,3,23,,,,,,,,,,,,2.20,1.18,1.85,4*01
$GPGSV,2,1,06,02,14,259,13,08,54,305,18,16,44,194,08,21,29,262,06,1*67
$GPGSV,2,2,06,23,43,056,16,26,12,176,10,1*66
$GPGSV,2,1,05,15,03,028,,18,10,066,,27,84,067,,36,36,158,,0*62
$GPGSV,2,2,05,36,36,158,,0*5C
$GLGSV,1,1,02,75,41,277,22,85,42,297,20,1*7A
$GLGSV,2,1,07,68,27,041,,69,38,101,,70,07,161,,74,22,215,,0*74
$GLGSV,2,2,07,74,22,215,,76,14,336,,83,05,078,,0*48
$GAGSV,1,1,01,13,78,319,09,7*4D
$GAGSV,2,1,07,03,16,073,,05,05,026,,08,10,121,,15,37,059,,0*73
$GAGSV,2,2,07,15,37,059,,21,57,244,,26,30,256,,0*4A
$GBGSV,1,1,01,23,21,228,11,1*4D
$GBGSV,1,1,01,23,21,228,08,3*47
$GNGLL,4503.71998,N,00739.31485,E,114624.20,A,D*7E
$GNRMC,114624.40,A,4503.71977,N,00739.31515,E,2.152,,240524,,,D,V*13
$GNVTG,,T,,M,2.152,N,3.985,K,D*3B
$GNGGA,114624.40,4503.71977,N,00739.31515,E,2,09,1.18,265.8,M,47.2,M,,0000*4B
$GNGSA,A,3,08,23,02,16,26,,,,,,,,2.20,1.18,1.85,1*0D
$GNGSA,A,3,75,85,,,,,,,,,,,2.20,1.18,1.85,2*09
$GNGSA,A,3,13,,,,,,,,,,,,2.20,1.18,1.85,3*05
$GNGSA,A,3,23,,,,,,,,,,,,2.20,1.18,1.85,4*01
$GPGSV,2,1,06,02,14,259,13,08,54,305,17,16,44,194,08,21,29,262,06,1*68
$GPGSV,2,2,06,23,43,056,16,26,12,176,10,1*66
$GPGSV,2,1,05,15,03,028,,18,10,066,,27,84,067,,36,36,158,,0*62
$GPGSV,2,2,05,36,36,158,,0*5C
$GLGSV,1,1,02,75,41,277,22,85,42,297,21,1*7B
$GLGSV,2,1,07,68,27,041,,69,38,101,,70,07,161,,74,22,215,,0*74
$GLGSV,2,2,07,74,22,215,,76,14,336,,83,05,078,,0*48
$GAGSV,1,1,01,13,78,319,09,7*4D
$GAGSV,2,1,07,03,16,073,,05,05,026,,08,10,121,,15,37,059,,0*73
$GAGSV,2,2,07,15,37,059,,21,57,244,,26,30,256,,0*4A
$GBGSV,1,1,01,23,21,228,11,1*4D
$GBGSV,1,1,01,23,21,228,08,3*47
$GNGLL,4503.71977,N,00739.31515,E,114624.40,A,D*71
$GNRMC,114624.60,A,4503.71956,N,00739.31551,E,3.385,,240524,,,D,V*1B
$GNVTG,,T,,M,3.385,N,6.270,K,D*36
$GNGGA,114624.60,4503.71956,N,00739.31551,E,2,10,1.16,266.1,M,47.2,M,,0000*46
$GNGSA,A,3,21,08,23,02,16,26,,,,,,,2.18,1.16,1.85,1*0B
$GNGSA,A,3,75,85,,,,,,,,,,,2.18,1.16,1.85,2*0C
$GNGSA,A,3,13,,,,,,,,,,,,2.18,1.16,1.85,3*00
$GNGSA,A,3,23,,,,,,,,,,,,2.18,1.16,1.85,4*04
$GPGSV,2,1,06,02,14,259,11,08,54,305,17,16,44,194,11,21,29,262,10,1*65
$GPGSV,2,2,06,23,43,056,16,26,12,176,12,1*64
$GPGSV,2,1,05,15,03,028,,18,10,066,,27,84,067,,36,36,158,,0*62
$GPGSV,2,2,05,36,36,158,,0*5C
$GLGSV,1,1,02,75,41,277,22,85,42,297,21,1*7B
$GLGSV,2,1,07,68,27,041,,69,38,101,,70,07,161,,74,22,215,,0*74
$GLGSV,2,2,07,74,22,215,,76,14,336,,83,05,078,,0*48
$GAGSV,1,1,01,13,78,319,10,7*45
$GAGSV,2,1,07,03,16,073,,05,05,026,,08,10,121,,15,37,059,,0*73
$GAGSV,2,2,07,15,37,059,,21,57,244,,26,30,256,,0*4A
$GBGSV,1,1,01,23,21,228,11,1*4D
$GBGSV,1,1,01,23,21,228,08,3*47
$GNGLL,4503.71956,N,00739.31551,E,114624.60,A,D*70
$GNRMC,114624.80,A,4503.71947,N,00739.31573,E,1.626,,240524,,,D,V*1B
$GNVTG,,T,,M,1.626,N,3.011,K,D*38
$GNGGA,114624.80,4503.71947,N,00739.31573,E,2,10,1.16,266.2,M,47.2,M,,0000*4B
$GNGSA,A,3,21,08,23,02,16,26,,,,,,,2.18,1.16,1.85,1*0B
$GNGSA,A,3,75,85,,,,,,,,,,,2.18,1.16,1.85,2*0C
$GNGSA,A,3,13,,,,,,,,,,,,2.18,1.16,1.85,3*00
$GNGSA,A,3,23,,,,,,,,,,,,2.18,1.16,1.85,4*04
$GPGSV,2,1,06,02,14,259,11,08,54,305,17,16,44,194,11,21,29,262,10,1*65
$GPGSV,2,2,06,23,43,056,16,26,12,176,12,1*64
$GPGSV,2,1,05,15,03,028,,18,10,066,,27,84,067,,36,36,158,,0*62
$GPGSV,2,2,05,36,36,158,,0*5C
$GLGSV,1,1,02,75,41,277,22,85,42,297,21,1*7B
$GLGSV,2,1,07,68,27,041,,69,38,101,,70,07,161,,74,22,215,,0*74
$GLGSV,2,2,07,74,22,215,,76,14,336,,83,05,078,,0*48
$GAGSV,1,1,01,13,78,319,10,7*45
$GAGSV,2,1,07,03,16,073,,05,05,026,,08,10,121,,15,37,059,,0*73
$GAGSV,2,2,07,15,37,059,,21,57,244,,26,30,256,,0*4A
$GBGSV,1,1,01,23,21,228,11,1*4D
$GBGSV,1,1,01,23,21,228,08,3*47
$GNGLL,4503.71947,N,00739.31573,E,114624.80,A,D*7E
$GNRMC,114625.00,A,4503.71939,N,00739.31590,E,1.471,,240524,,,D,V*16
$GNVTG,,T,,M,1.471,N,2.725,K,D*39
$GNGGA,114625.00,4503.71939,N,00739.31590,E,2,09,1.45,265.8,M,47.2,M,,0000*41
$GNGSA,A,3,21,08,23,02,26,,,,,,,,2.72,1.45,2.31,1*0A
$GNGSA,A,3,75,85,,,,,,,,,,,2.72,1.45,2.31,2*0A
$GNGSA,A,3,13,,,,,,,,,,,,2.72,1.45,2.31,3*06
$GNGSA,A,3,23,,,,,,,,,,,,2.72,1.45,2.31,4*02
$GPGSV,2,1,06,02,14,259,09,08,54,305,17,16,44,194,07,21,29,262,12,1*69
$GPGSV,2,2,06,23,43,056,16,26,12,176,10,1*66
$GPGSV,2,1,05,15,03,028,,18,10,066,,27,84,067,,36,36,158,,0*62
$GPGSV,2,2,05,36,36,158,,0*5C
$GLGSV,1,1,02,75,41,277,22,85,42,297,20,1*7A
$GLGSV,2,1,07,68,27,041,,69,38,101,,70,07,161,,74,22,215,,0*74
$GLGSV,2,2,07,74,22,215,,76,14,336,,83,05,078,,0*48
$GAGSV,1,1,01,13,78,319,12,7*47
$GAGSV,2,1,07,03,16,073,,05,05,026,,08,10,121,,15,37,059,,0*73
$GAGSV,2,2,07,15,37,059,,21,57,244,,26,30,256,,0*4A
$GBGSV,1,1,01,23,21,228,11,1*4D
$GBGSV,1,1,01,23,21,228,08,3*47
$GNGLL,4503.71939,N,00739.31590,E,114625.00,A,D*73
$GNRMC,114625.20,A,4503.71925,N,00739.31604,E,1.642,,240524,,,D,V*15
$GNVTG,,T,,M,1.642,N,3.041,K,D*3F
$GNGGA,114625.20,4503.71925,N,00739.31604,E,2,09,1.45,265.8,M,47.2,M,,0000*40
$GNGSA,A,3,21,08,23,02,26,,,,,,,,2.72,1.45,2.31,1*0A
$GNGSA,A,3,75,85,,,,,,,,,,,2.72,1.45,2.31,2*0A
$GNGSA,A,3,13,,,,,,,,,,,,2.72,1.45,2.31,3*06
$GNGSA,A,3,23,,,,,,,,,,,,2.72,1.45,2.31,4*02
$GPGSV,2,1,06,02,14,259,09,08,54,305,17,16,44,194,07,21,29,262,12,1*69
$GPGSV,2,2,06,23,43,056,16,26,12,176,10,1*66
$GPGSV,2,1,05,15,03,028,,18,10,066,,27,84,067,,36,36,158,,0*62
$GPGSV,2,2,05,36,36,158,,0*5C
$GLGSV,1,1,02,75,41,277,22,85,42,297,21,1*7B
$GLGSV,2,1,07,68,27,041,,69,38,101,,70,07,161,,74,22,215,,0*74
$GLGSV,2,2,07,74,22,215,,76,14,336,,83,05,078,,0*48
$GAGSV,1,1,01,13,78,319,12,7*47
$GAGSV,2,1,07,03,16,073,,05,05,026,,08,10,121,,15,37,059,,0*73
$GAGSV,2,2,07,15,37,059,,21,57,244,,26,30,256,,0*4A
$GBGSV,1,1,01,23,21,228,10,1*4C
$GBGSV,1,1,01,23,21,228,08,3*47
$GNGLL,4503.71925,N,00739.31604,E,114625.20,A,D*72
$GNRMC,114625.40,A,4503.71922,N,00739.31617,E,1.375,,240524,,,D,V*17
$GNVTG,,T,,M,1.375,N,2.547,K,D*3C
$GNGGA,114625.40,4503.71922,N,00739.31617,E,2,09,1.19,265.6,M,47.2,M,,0000*44
$GNGSA,A,3,21,08,23,02,16,26,,,,,,,2.20,1.19,1.85,1*0F
$GNGSA,A,3,75,85,,,,,,,,,,,2.20,1.19,1.85,2*08
$GNGSA,A,3,13,,,,,,,,,,,,2.20,1.19,1.85,3*04
$GNGSA,A,3,,,,,,,,,,,,,2.20,1.19,1.85,4*01
$GPGSV,2,1,06,02,14,259,10,08,54,305,17,16,44,194,11,21,29,262,10,1*64
$GPGSV,2,2,06,23,43,056,16,26,12,176,15,1*63
$GPGSV,2,1,05,15,03,028,,18,10,066,,27,84,067,,36,36,158,,0*62
$GPGSV,2,2,05,36,36,158,,0*5C
$GLGSV,1,1,03,70,07,161,23,75,41,277,22,85,42,297,20,1*4C
$GLGSV,2,1,06,68,27,041,,69,38,101,,74,22,215,,76,14,336,,0*71
$GLGSV,2,2,06,76,14,336,,83,05,078,,0*7C
$GAGSV,1,1,01,13,78,319,08,7*4C
$GAGSV,2,1,07,03,16,073,,05,05,026,,08,10,121,,15,37,059,,0*73
$GAGSV,2,2,07,15,37,059,,21,57,244,,26,30,256,,0*4A
$GBGSV,1,1,01,23,21,228,10,1*4C
$GBGSV,1,1,01,23,21,228,08,3*47
$GNGLL,4503.71922,N,00739.31617,E,114625.40,A,D*71
$GNRMC,114625.60,A,4503.71914,N,00739.31631,E,0.835,,240524,,,D,V*1A
$GNVTG,,T,,M,0.835,N,1.546,K,D*30
$GNGGA,114625.60,4503.71914,N,00739.31631,E,2,09,1.19,265.6,M,47.2,M,,0000*47
$GNGSA,A,3,21,08,23,02,16,26,,,,,,,2.20,1.19,1.85,1*0F
$GNGSA,A,3,75,85,,,,,,,,,,,2.20,1.19,1.85,2*08
$GNGSA,A,3,13,,,,,,,,,,,,2.20,1.19,1.85,3*04
$GNGSA,A,3,,,,,,,,,,,,,2.20,1.19,1.85,4*01
$GPGSV,2,1,06,02,14,259,10,08,54,305,17,16,44,194,11,21,29,262,10,1*64
$GPGSV,2,2,06,23,43,056,16,26,12,176,15,1*63
$GPGSV,2,1,05,15,03,028,,18,10,066,,27,84,067,,36,36,158,,0*62
$GPGSV,2,2,05,36,36,158,,0*5C
$GLGSV,1,1,03,70,07,161,22,75,41,277,22,85,42,297,20,1*4D
$GLGSV,2,1,06,68,27,041,,69,38,101,,74,22,215,,76,14,336,,0*71
$GLGSV,2,2,06,76,14,336,,83,05,078,,0*7C
$GAGSV,1,1,01,13,78,319,08,7*4C
$GAGSV,2,1,07,03,16,073,,05,05,026,,08,10,121,,15,37,059,,0*73
$GAGSV,2,2,07,15,37,059,,21,57,244,,26,30,256,,0*4A
$GBGSV,1,1,01,23,21,228,09,1*44
$GBGSV,1,1,01,23,21,228,07,3*48
$GNGLL,4503.71914,N,00739.31631,E,114625.60,A,D*72
$GNRMC,114625.80,A,4503.71929,N,00739.31642,E,1.328,,240524,,,D,V*18
$GNVTG,,T,,M,1.328,N,2.459,K,D*3A
$GNGGA,114625.80,4503.71929,N,00739.31642,E,2,09,1.19,265.5,M,47.2,M,,0000*40
$GNGSA,A,3,21,08,23,02,16,26,,,,,,,2.20,1.19,1.85,1*0F
$GNGSA,A,3,75,85,,,,,,,,,,,2.20,1.19,1.85,2*08
$GNGSA,A,3,13,,,,,,,,,,,,2.20,1.19,1.85,3*04
$GNGSA,A,3,,,,,,,,,,,,,2.20,1.19,1.85,4*01
$GPGSV,2,1,06,02,14,259,13,08,54,305,17,16,44,194,13,21,29,262,11,1*64
$GPGSV,2,2,06,23,43,056,16,26,12,176,09,1*6E
$GPGSV,2,1,05,15,03,028,,18,10,066,,27,84,067,,36,36,158,,0*62
$GPGSV,2,2,05,36,36,158,,0*5C
$GLGSV,1,1,03,70,07,161,22,75,41,277,22,85,42,297,20,1*4D
$GLGSV,2,1,06,68,27,041,,69,38,101,,74,22,215,,76,14,336,,0*71
$GLGSV,2,2,06,76,14,336,,83,05,078,,0*7C
$GAGSV,1,1,01,13,78,319,09,7*4D
$GAGSV,2,1,07,03,16,073,,05,05,026,,08,10,121,,15,37,059,,0*73
$GAGSV,2,2,07,15,37,059,,21,57,244,,26,30,256,,0*4A
$GBGSV,1,1,01,23,21,228,09,1*44
$GNGLL,4503.71929,N,00739.31642,E,114625.80,A,D*76
$GNRMC,114626.00,A,4503.71873,N,00739.31683,E,4.482,,240524,,,D,V*12
$GNVTG,,T,,M,4.482,N,8.301,K,D*38
$GNGGA,114626.00,4503.71873,N,00739.31683,E,2,09,1.19,266.4,M,47.2,M,,0000*4A
$GNGSA,A,3,21,08,23,02,16,26,,,,,,,2.20,1.19,1.85,1*0F
$GNGSA,A,3,75,85,,,,,,,,,,,2.20,1.19,1.85,2*08
$GNGSA,A,3,13,,,,,,,,,,,,2.20,1.19,1.85,3*04
$GNGSA,A,3,,,,,,,,,,,,,2.20,1.19,1.85,4*01
$GPGSV,2,1,06,02,14,259,13,08,54,305,17,16,44,194,13,21,29,262,11,1*64
$GPGSV,2,2,06,23,43,056,16,26,12,176,09,1*6E
$GPGSV,2,1,05,15,03,028,,18,10,066,,27,84,067,,36,36,158,,0*62
$GPGSV,2,2,05,36,36,158,,0*5C
$GLGSV,1,1,03,70,07,161,22,75,41,277,22,85,42,297,20,1*4D
$GLGSV,2,1,06,68,27,041,,69,38,101,,74,22,215,,76,14,336,,0*71
$GLGSV,2,2,06,76,14,336,,83,05,078,,0*7C
$GAGSV,1,1,01,13,78,319,09,7*4D
$GAGSV,2,1,07,03,16,073,,05,05,026,,08,10,121,,15,37,059,,0*73
$GAGSV,2,2,07,15,37,059,,21,57,244,,26,30,256,,0*4A
$GBGSV,1,1,01,23,21,228,09,1*44
$GNGLL,4503.71873,N,00739.31683,E,114626.00,A,D*7E
$GNRMC,114626.20,A,4503.71770,N,00739.31729,E,7.574,159.58,240524,,,D,V*08
$GNVTG,159.58,T,,M,7.574,N,14.026,K,D*16
$GNGGA,114626.20,4503.71770,N,00739.31729,E,2,09,1.19,268.0,M,47.2,M,,0000*4F
$GNGSA,A,3,21,08,23,02,16,26,,,,,,,2.20,1.19,1.85,1*0F
$GNGSA,A,3,75,85,,,,,,,,,,,2.20,1.19,1.85,2*08
$GNGSA,A,3,13,,,,,,,,,,,,2.20,1.19,1.85,3*04
$GNGSA,A,3,,,,,,,,,,,,,2.20,1.19,1.85,4*01
$GPGSV,2,1,06,02,14,259,12,08,55,305,17,16,44,194,12,21,29,262,07,1*62
$GPGSV,2,2,06,23,43,056,16,26,12,176,12,1*64
$GPGSV,2,1,05,15,03,028,,18,10,066,,27,84,067,,36,36,158,,0*62
$GPGSV,2,2,05,36,36,158,,0*5C
$GLGSV,1,1,03,70,07,161,21,75,41,277,22,85,42,297,19,1*44
$GLGSV,2,1,06,68,27,041,,69,38,101,,74,22,215,,76,14,336,,0*71
$GLGSV,2,2,06,76,14,336,,83,05,078,,0*7C
$GAGSV,1,1,01,13,78,319,12,7*47
$GAGSV,2,1,07,03,16,073,,05,05,026,,08,10,121,,15,37,059,,0*73
$GAGSV,2,2,07,15,37,059,,21,57,244,,26,30,256,,0*4A
$GBGSV,1,1,01,23,21,228,09,1*44
$GNGLL,4503.71770,N,00739.31729,E,114626.20,A,D*71
$GNRMC,114626.40,A,4503.71749,N,00739.31746,E,5.469,,240524,,,D,V*1C
$GNVTG,,T,,M,5.469,N,10.128,K,D*0C
$GNGGA,114626.40,4503.71749,N,00739.31746,E,2,09,1.19,268.6,M,47.2,M,,0000*4C
$GNGSA,A,3,21,08,23,02,16,26,,,,,,,2.20,1.19,1.85,1*0F
$GNGSA,A,3,75,85,,,,,,,,,,,2.20,1.19,1.85,2*08
$GNGSA,A,3,13,,,,,,,,,,,,2.20,1.19,1.85,3*04
$GNGSA,A,3,,,,,,,,,,,,,2.20,1.19,1.85,4*01
$GPGSV,2,1,06,02,14,259,12,08,55,305,17,16,44,194,12,21,29,262,07,1*62
$GPGSV,2,2,06,23,43,056,16,26,12,176,12,1*64
$GPGSV,2,1,05,15,03,028,,18,10,066,,27,84,067,,36,36,158,,0*62
$GPGSV,2,2,05,36,36,158,,0*5C
$GLGSV,1,1,03,70,07,161,21,75,41,277,22,85,42,297,19,1*44
$GLGSV,2,1,06,68,27,041,,69,38,101,,74,22,215,,76,14,336,,0*71
$GLGSV,2,2,06,76,14,336,,83,05,078,,0*7C
$GAGSV,1,1,01,13,78,319,12,7*47
$GAGSV,2,1,07,03,16,073,,05,05,026,,08,10,121,,15,37,059,,0*73
$GAGSV,2,2,07,15,37,059,,21,57,244,,26,30,256,,0*4A
$GBGSV,1,1,01,23,21,228,09,1*44
$GNGLL,4503.71749,N,00739.31746,E,114626.40,A,D*74
$GNRMC,114626.60,A,4503.71734,N,00739.31771,E,5.326,,240524,,,D,V*1C
$GNVTG,,T,,M,5.326,N,9.864,K,D*39
$GNGGA,114626.60,4503.71734,N,00739.31771,E,2,09,1.19,268.4,M,47.2,M,,0000*42
$GNGSA,A,3,21,08,23,02,16,26,,,,,,,2.20,1.19,1.85,1*0F
$GNGSA,A,3,75,85,,,,,,,,,,,2.20,1.19,1.85,2*08
$GNGSA,A,3,13,,,,,,,,,,,,2.20,1.19,1.85,3*04
$GNGSA,A,3,,,,,,,,,,,,,2.20,1.19,1.85,4*01
$GPGSV,2,1,06,02,14,259,14,08,55,305,16,16,44,194,12,21,29,262,10,1*63
$GPGSV,2,2,06,23,43,056,16,26,12,176,11,1*67
$GPGSV,2,1,05,15,03,028,,18,10,066,,27,84,067,,36,36,158,,0*62
$GPGSV,2,2,05,36,36,158,,0*5C
$GLGSV,1,1,03,70,07,161,20,75,41,277,22,85,42,297,19,1*45
$GLGSV,2,1,06,68,27,041,,69,38,101,,74,22,215,,76,14,336,,0*71
$GLGSV,2,2,06,76,14,336,,83,05,078,,0*7C
$GAGSV,1,1,01,13,78,319,07,7*43
$GAGSV,2,1,07,03,16,073,,05,05,026,,08,10,121,,15,37,059,,0*73
$GAGSV,2,2,07,15,37,059,,21,57,244,,26,30,256,,0*4A
$GBGSV,1,1,01,23,21,228,08,1*45
$GNGLL,4503.71734,N,00739.31771,E,114626.60,A,D*78
$GNRMC,114626.80,A,4503.71771,N,00739.31790,E,3.756,,240524,,,D,V*19
$GNVTG,,T,,M,3.756,N,6.957,K,D*32
$GNGGA,114626.80,4503.71771,N,00739.31790,E,2,09,1.19,267.8,M,47.2,M,,0000*41
$GNGSA,A,3,21,08,23,02,16,26,,,,,,,2.20,1.19,1.85,1*0F
$GNGSA,A,3,75,85,,,,,,,,,,,2.20,1.19,1.85,2*08
$GNGSA,A,3,13,,,,,,,,,,,,2.20,1.19,1.85,3*04
$GNGSA,A,3,,,,,,,,,,,,,2.20,1.19,1.85,4*01
$GPGSV,2,1,06,02,14,259,14,08,55,305,16,16,44,194,12,21,29,262,10,1*63
$GPGSV,2,2,06,23,43,056,16,26,12,176,11,1*67
$GPGSV,2,1,05,15,03,028,,18,10,066,,27,84,067,,36,36,158,,0*62
$GPGSV,2,2,05,36,36,158,,0*5C
$GLGSV,1,1,03,70,07,161,20,75,41,277,22,85,42,297,18,1*44
$GLGSV,2,1,06,68,27,041,,69,38,101,,74,22,215,,76,14,336,,0*71
$GLGSV,2,2,06,76,14,336,,83,05,078,,0*7C
$GAGSV,1,1,01,13,78,319,07,7*43
$GAGSV,2,1,07,03,16,073,,05,05,026,,08,10,121,,15,37,059,,0*73
$GAGSV,2,2,07,15,37,059,,21,57,244,,26,30,256,,0*4A
$GBGSV,1,1,01,23,21,228,08,1*45
$GNGLL,4503.71771,N,00739.31790,E,114626.80,A,D*78
$GNRMC,114627.00,A,4503.71757,N,00739.31821,E,2.809,,240524,,,D,V*15
$GNVTG,,T,,M,2.809,N,5.201,K,D*3D
$GNGGA,114627.00,4503.71757,N,00739.31821,E,2,08,1.22,268.3,M,47.2,M,,0000*44
$GNGSA,A,3,21,08,23,02,16,26,,,,,,,2.54,1.22,2.23,1*0B
$GNGSA,A,3,75,85,,,,,,,,,,,2.54,1.22,2.23,2*0C
$GNGSA,A,3,,,,,,,,,,,,,2.54,1.22,2.23,3*02
$GNGSA,A,3,,,,,,,,,,,,,2.54,1.22,2.23,4*05
$GPGSV,2,1,06,02,14,259,13,08,55,305,16,16,44,194,10,21,29,262,10,1*66
$GPGSV,2,2,06,23,43,056,17,26,12,176,13,1*64
$GPGSV,2,1,05,15,03,028,,18,10,066,,27,84,067,,36,36,158,,0*62
$GPGSV,2,2,05,36,36,158,,0*5C
$GLGSV,1,1,03,70,07,161,20,75,41,277,22,85,42,297,18,1*44
$GLGSV,2,1,06,68,27,041,,69,38,101,,74,22,215,,76,14,336,,0*71
$GLGSV,2,2,06,76,14,336,,83,05,078,,0*7C
$GAGSV,1,1,01,13,78,319,06,7*42
$GAGSV,2,1,07,03,16,073,,05,05,026,,08,10,121,,15,37,059,,0*73
$GAGSV,2,2,07,15,37,059,,21,57,244,,26,30,256,,0*4A
$GBGSV,1,1,01,23,21,228,08,1*45
$GNGLL,4503.71757,N,00739.31821,E,114627.00,A,D*70
$GNRMC,114627.20,A,4503.71733,N,00739.31840,E,1.712,,240524,,,D,V*14
$GNVTG,,T,,M,1.712,N,3.171,K,D*39
$GNGGA,114627.20,4503.71733,N,00739.31840,E,2,08,1.22,269.1,M,47.2,M,,0000*40
$GNGSA,A,3,21,08,23,02,16,26,,,,,,,2.54,1.22,2.23,1*0B
$GNGSA,A,3,75,85,,,,,,,,,,,2.54,1.22,2.23,2*0C
$GNGSA,A,3,,,,,,,,,,,,,2.54,1.22,2.23,3*02
$GNGSA,A,3,,,,,,,,,,,,,2.54,1.22,2.23,4*05
$GPGSV,2,1,06,02,14,259,13,08,55,305,15,16,44,194,10,21,29,262,10,1*65
$GPGSV,2,2,06,23,43,056,16,26,12,176,13,1*65
$GPGSV,2,1,05,15,03,028,,18,10,066,,27,84,067,,36,36,158,,0*62
$GPGSV,2,2,05,36,36,158,,0*5C
$GLGSV,1,1,03,70,07,161,19,75,41,277,22,85,42,297,18,1*4E
$GLGSV,2,1,06,68,27,041,,69,38,101,,74,22,215,,76,14,336,,0*71
$GLGSV,2,2,06,76,14,336,,83,05,078,,0*7C
$GAGSV,1,1,01,13,78,319,06,7*42
$GAGSV,2,1,07,03,16,073,,05,05,026,,08,10,121,,15,37,059,,0*73
$GAGSV,2,2,07,15,37,059,,21,57,244,,26,30,256,,0*4A
$GBGSV,1,1,01,23,21,228,08,1*45
$GNGLL,4503.71733,N,00739.31840,E,114627.20,A,D*77
$GNRMC,114627.40,A,4503.71704,N,00739.31873,E,3.437,,240524,,,D,V*10
$GNVTG,,T,,M,3.437,N,6.366,K,D*3E
$GNGGA,114627.40,4503.71704,N,00739.31873,E,2,08,1.22,269.8,M,47.2,M,,0000*4B
$GNGSA,A,3,21,08,23,02,16,26,,,,,,,2.54,1.22,2.23,1*0B
$GNGSA,A,3,75,85,,,,,,,,,,,2.54,1.22,2.23,2*0C
$GNGSA,A,3,,,,,,,,,,,,,2.54,1.22,2.23,3*02
$GNGSA,A,3,,,,,,,,,,,,,2.54,1.22,2.23,4*05
$GPGSV,2,1,06,02,14,259,13,08,55,305,15,16,44,194,10,21,29,262,10,1*65
$GPGSV,2,2,06,23,43,056,16,26,12,176,13,1*65
$GPGSV,2,1,05,15,03,028,,18,10,066,,27,84,067,,36,36,158,,0*62
$GPGSV,2,2,05,36,36,158,,0*5C
$GLGSV,1,1,03,70,07,161,19,75,41,277,22,85,42,297,18,1*4E
$GLGSV,2,1,06,68,27,041,,69,38,101,,74,22,215,,76,14,336,,0*71
$GLGSV,2,2,06,76,14,336,,83,05,078,,0*7C
$GAGSV,1,1,01,13,78,319,06,7*42
$GAGSV,2,1,07,03,16,073,,05,05,026,,08,10,121,,15,37,059,,0*73
$GAGSV,2,2,07,15,37,059,,21,57,244,,26,30,256,,0*4A
$GBGSV,1,1,01,23,21,228,08,1*45
$GNGLL,4503.71704,N,00739.31873,E,114627.40,A,D*75
$GNRMC,114627.60,A,4503.71669,N,00739.31918,E,5.060,,240524,,,D,V*14
$GNVTG,,T,,M,5.060,N,9.370,K,D*36
$GNGGA,114627.60,4503.71669,N,00739.31918,E,2,09,1.19,270.8,M,47.2,M,,0000*4E
$GNGSA,A,3,21,08,23,02,16,26,,,,,,,2.20,1.19,1.85,1*0F
$GNGSA,A,3,75,85,,,,,,,,,,,2.20,1.19,1.85,2*08
$GNGSA,A,3,13,,,,,,,,,,,,2.20,1.19,1.85,3*04
$GNGSA,A,3,,,,,,,,,,,,,2.20,1.19,1.85,4*01
$GPGSV,2,1,06,02,14,259,10,08,55,305,14,16,44,194,09,21,29,262,10,1*6F
$GPGSV,2,2,06,23,43,056,16,26,12,176,12,1*64
$GPGSV,2,1,05,15,03,028,,18,10,066,,27,84,067,,36,36,158,,0*62
$GPGSV,2,2,05,36,36,158,,0*5C
$GLGSV,1,1,03,70,07,161,19,75,41,277,22,85,42,297,17,1*41
$GLGSV,2,1,06,68,27,041,,69,38,101,,74,22,215,,76,14,336,,0*71
$GLGSV,2,2,06,76,14,336,,83,05,078,,0*7C
$GAGSV,1,1,01,13,78,319,07,7*43
$GAGSV,2,1,07,03,16,073,,05,05,026,,08,10,121,,15,37,059,,0*73
$GAGSV,2,2,07,15,37,059,,21,57,244,,26,30,256,,0*4A
$GBGSV,1,1,01,23,21,228,08,1*45
$GNGLL,4503.71669,N,00739.31918,E,114627.60,A,D*71
$GNRMC,114627.80,A,4503.71677,N,00739.31949,E,3.707,,240524,,,D,V*11
$GNVTG,,T,,M,3.707,N,6.866,K,D*35
$GNGGA,114627.80,4503.71677,N,00739.31949,E,2,09,1.19,270.5,M,47.2,M,,0000*46
$GNGSA,A,3,21,08,23,02,16,26,,,,,,,2.20,1.19,1.85,1*0F
$GNGSA,A,3,75,85,,,,,,,,,,,2.20,1.19,1.85,2*08
$GNGSA,A,3,13,,,,,,,,,,,,2.20,1.19,1.85,3*04
$GNGSA,A,3,,,,,,,,,,,,,2.20,1.19,1.85,4*01
$GPGSV,2,1,06,02,14,259,10,08,55,305,14,16,44,194,09,21,29,262,10,1*6F
$GPGSV,2,2,06,23,43,056,16,26,12,176,12,1*64
$GPGSV,2,1,05,15,03,028,,18,10,066,,27,84,067,,36,36,158,,0*62
$GPGSV,2,2,05,36,36,158,,0*5C
$GLGSV,1,1,03,70,07,161,18,75,41,277,22,85,42,297,17,1*40
$GLGSV,2,1,06,68,27,041,,69,38,101,,74,22,215,,76,14,336,,0*71
$GLGSV,2,2,06,76,14,336,,83,05,078,,0*7C
$GAGSV,1,1,01,13,78,319,07,7*43
$GAGSV,2,1,07,03,16,073,,05,05,026,,08,10,121,,15,37,059,,0*73
$GAGSV,2,2,07,15,37,059,,21,57,244,,26,30,256,,0*4A
$GBGSV,1,1,01,23,21,228,08,1*45
$GNGLL,4503.71677,N,00739.31949,E,114627.80,A,D*74
$GNRMC,114628.00,A,4503.71682,N,00739.31941,E,2.343,,240524,,,D,V*11
$GNVTG,,T,,M,2.343,N,4.339,K,D*33
$GNGGA,114628.00,4503.71682,N,00739.31941,E,2,09,1.19,270.0,M,47.2,M,,0000*46
$GNGSA,A,3,21,08,23,02,16,26,,,,,,,2.20,1.19,1.85,1*0F
$GNGSA,A,3,75,85,,,,,,,,,,,2.20,1.19,1.85,2*08
$GNGSA,A,3,13,,,,,,,,,,,,2.20,1.19,1.85,3*04
$GNGSA,A,3,,,,,,,,,,,,,2.20,1.19,1.85,4*01
$GPGSV,2,1,06,02,14,259,12,08,55,305,14,16,44,194,12,21,29,262,08,1*6E
$GPGSV,2,2,06,23,43,056,16,26,12,176,10,1*66
$GPGSV,2,1,05,15,03,028,,18,10,066,,27,84,067,,36,36,158,,0*62
$GPGSV,2,2,05,36,36,158,,0*5C
$GLGSV,1,1,03,70,07,161,18,75,41,277,22,85,42,297,17,1*40
$GLGSV,2,1,06,68,27,041,,69,38,101,,74,22,215,,76,14,336,,0*71
$GLGSV,2,2,06,76,14,336,,83,05,078,,0*7C
$GAGSV,1,1,01,13,78,319,11,7*44
$GAGSV,2,1,07,03,16,073,,05,05,026,,08,10,121,,15,37,059,,0*73
$GAGSV,2,2,07,15,37,059,,21,57,244,,26,30,256,,0*4A
$GBGSV,1,1,01,23,21,228,08,1*45
$GNGLL,4503.71682,N,00739.31941,E,114628.00,A,D*71
$GNRMC,114628.20,A,4503.71664,N,00739.31915,E,5.118,,240524,,,D,V*11
$GNVTG,,T,,M,5.118,N,9.478,K,D*37
$GNGGA,114628.20,4503.71664,N,00739.31915,E,2,09,1.19,269.1,M,47.2,M,,0000*44
$GNGSA,A,3,21,08,23,02,16,26,,,,,,,2.20,1.19,1.85,1*0F
$GNGSA,A,3,75,85,,,,,,,,,,,2.20,1.19,1.85,2*08
$GNGSA,A,3,13,,,,,,,,,,,,2.20,1.19,1.85,3*04
$GNGSA,A,3,,,,,,,,,,,,,2.20,1.19,1.85,4*01
$GPGSV,2,1,06,02,14,259,12,08,55,305,15,16,44,194,12,21,29,262,08,1*6F
$GPGSV,2,2,06,23,43,056,15,26,12,176,10,1*65
$GPGSV,2,1,05,15,03,028,,18,10,066,,27,84,067,,36,36,158,,0*62
$GPGSV,2,2,05,36,36,158,,0*5C
$GLGSV,1,1,03,70,07,161,17,75,41,277,22,85,42,297,16,1*4E
$GLGSV,2,1,06,68,27,041,,69,38,101,,74,22,215,,76,14,336,,0*71
$GLGSV,2,2,06,76,14,336,,83,05,078,,0*7C
$GAGSV,1,1,01,13,78,319,11,7*44
$GAGSV,2,1,07,03,16,073,,05,05,026,,08,10,121,,15,37,059,,0*73
$GAGSV,2,2,07,15,37,059,,21,57,244,,26,30,256,,0*4A
$GBGSV,1,1,01,23,21,228,08,1*45
$GNGLL,4503.71664,N,00739.31915,E,114628.20,A,D*7A
$GNRMC,114628.40,A,4503.71628,N,00739.31928,E,4.858,,240524,,,D,V*1D
$GNVTG,,T,,M,4.858,N,8.997,K,D*36
$GNGGA,114628.40,4503.71628,N,00739.31928,E,2,09,1.19,268.8,M,47.2,M,,0000*4C
$GNGSA,A,3,21,08,23,02,16,26,,,,,,,2.20,1.19,1.85,1*0F
$GNGSA,A,3,75,85,,,,,,,,,,,2.20,1.19,1.85,2*08
$GNGSA,A,3,13,,,,,,,,,,,,2.20,1.19,1.85,3*04
$GNGSA,A,3,,,,,,,,,,,,,2.20,1.19,1.85,4*01
$GPGSV,2,1,06,02,14,259,15,08,55,305,14,16,44,194,09,21,29,262,11,1*6B
$GPGSV,2,2,06,23,43,056,15,26,12,176,12,1*67
$GPGSV,2,1,05,15,03,028,,18,10,066,,27,84,067,,36,36,158,,0*62
$GPGSV,2,2,05,36,36,158,,0*5C
$GLGSV,1,1,03,70,07,161,16,75,41,277,22,85,42,297,17,1*4E
$GLGSV,2,1,06,68,27,041,,69,38,101,,74,22,215,,76,14,336,,0*71
$GLGSV,2,2,06,76,14,336,,83,05,078,,0*7C
$GAGSV,1,1,01,13,78,319,09,7*4D
$GAGSV,2,1,07,03,16,073,,05,05,026,,08,10,121,,15,37,059,,0*73
$GAGSV,2,2,07,15,37,059,,21,57,244,,26,30,256,,0*4A
$GBGSV,1,1,01,23,21,228,08,1*45
$GNGLL,4503.71628,N,00739.31928,E,114628.40,A,D*7A
$GNRMC,114628.60,A,4503.71579,N,00739.31947,E,5.930,,240524,,,D,V*1F
$GNVTG,,T,,M,5.930,N,10.982,K,D*05
$GNGGA,114628.60,4503.71579,N,00739.31947,E,2,09,1.19,268.6,M,47.2,M,,0000*4E
$GNGSA,A,3,21,08,23,02,16,26,,,,,,,2.20,1.19,1.85,1*0F
$GNGSA,A,3,75,85,,,,,,,,,,,2.20,1.19,1.85,2*08
$GNGSA,A,3,13,,,,,,,,,,,,2.20,1.19,1.85,3*04
$GNGSA,A,3,,,,,,,,,,,,,2.20,1.19,1.85,4*01
$GPGSV,2,1,06,02,14,259,15,08,55,305,15,16,44,194,09,21,29,262,11,1*6A
$GPGSV,2,2,06,23,43,056,15,26,12,176,12,1*67
$GPGSV,2,1,05,15,03,028,,18,10,066,,27,84,067,,36,36,158,,0*62
$GPGSV,2,2,05,36,36,158,,0*5C
$GLGSV,1,1,03,70,07,161,16,75,41,277,22,85,42,297,17,1*4E
$GLGSV,2,1,06,68,27,041,,69,38,101,,74,22,215,,76,14,336,,0*71
$GLGSV,2,2,06,76,14,336,,83,05,078,,0*7C
$GAGSV,1,1,01,13,78,319,09,7*4D
$GAGSV,2,1,07,03,16,073,,05,05,026,,08,10,121,,15,37,059,,0*73
$GAGSV,2,2,07,15,37,059,,21,57,244,,26,30,256,,0*4A
$GBGSV,1,1,01,23,21,228,08,1*45
$GNGLL,4503.71579,N,00739.31947,E,114628.60,A,D*76
$GNRMC,114628.80,A,4503.71540,N,00739.31940,E,7.942,,240524,,,D,V*1B
$GNVTG,,T,,M,7.942,N,14.708,K,D*0A
$GNGGA,114628.80,4503.71540,N,00739.31940,E,2,09,1.19,267.6,M,47.2,M,,0000*42
$GNGSA,A,3,21,08,23,02,16,26,,,,,,,2.20,1.19,1.85,1*0F
$GNGSA,A,3,75,85,,,,,,,,,,,2.20,1.19,1.85,2*08
$GNGSA,A,3,13,,,,,,,,,,,,2.20,1.19,1.85,3*04
$GNGSA,A,3,,,,,,,,,,,,,2.20,1.19,1.85,4*01
$GPGSV,2,1,06,02,14,259,15,08,55,305,14,16,44,194,11,21,29,262,10,1*63
$GPGSV,2,2,06,23,43,056,16,26,12,176,13,1*65
$GPGSV,2,1,05,15,03,028,,18,10,066,,27,84,067,,36,36,158,,0*62
$GPGSV,2,2,05,36,36,158,,0*5C
$GLGSV,1,1,03,70,07,161,15,75,41,277,22,85,42,297,17,1*4D
$GLGSV,2,1,06,68,27,041,,69,38,101,,74,22,215,,76,14,336,,0*71
$GLGSV,2,2,06,76,14,336,,83,05,078,,0*7C
$GAGSV,1,1,01,13,78,319,08,7*4C
$GAGSV,2,1,07,03,16,073,,05,05,026,,08,10,121,,15,37,059,,0*73
$GAGSV,2,2,07,15,37,059,,21,57,244,,26,30,256,,0*4A
$GBGSV,1,1,01,23,21,228,08,1*45
$GNGLL,4503.71540,N,00739.31940,E,114628.80,A,D*75
$GNRMC,114629.00,A,4503.71551,N,00739.31922,E,5.855,,240524,,,D,V*13
$GNVTG,,T,,M,5.855,N,10.843,K,D*0B
$GNGGA,114629.00,4503.71551,N,00739.31922,E,2,10,1.16,266.1,M,47.2,M,,0000*4E
$GNGSA,A,3,21,08,23,02,16,26,,,,,,,2.18,1.16,1.85,1*0B
$GNGSA,A,3,75,85,,,,,,,,,,,2.18,1.16,1.85,2*0C
$GNGSA,A,3,13,,,,,,,,,,,,2.18,1.16,1.85,3*00
$GNGSA,A,3,23,,,,,,,,,,,,2.18,1.16,1.85,4*04
$GPGSV,2,1,06,02,14,259,15,08,55,305,14,16,44,194,11,21,29,262,10,1*63
$GPGSV,2,2,06,23,43,056,16,26,12,176,13,1*65
$GPGSV,2,1,05,15,03,028,,18,10,066,,27,84,067,,36,36,158,,0*62
$GPGSV,2,2,05,36,36,158,,0*5C
$GLGSV,1,1,03,70,07,161,14,75,41,277,22,85,42,297,17,1*4C
$GLGSV,2,1,06,68,27,041,,69,38,101,,74,22,215,,76,14,336,,0*71
$GLGSV,2,2,06,76,14,336,,83,05,078,,0*7C
$GAGSV,1,1,01,13,78,319,08,7*4C
$GAGSV,2,1,07,03,16,073,,05,05,026,,08,10,121,,15,37,059,,0*73
$GAGSV,2,2,07,15,37,059,,21,57,244,,26,30,256,,0*4A
$GBGSV,1,1,01,23,21,228,08,1*45
$GNGLL,4503.71551,N,00739.31922,E,114629.00,A,D*78
$GNRMC,114629.20,A,4503.71561,N,00739.31923,E,2.214,,240524,,,D,V*1B
$GNVTG,,T,,M,2.214,N,4.100,K,D*38
$GNGGA,114629.20,4503.71561,N,00739.31923,E,2,10,1.16,265.2,M,47.2,M,,0000*4E
$GNGSA,A,3,21,08,23,02,16,26,,,,,,,2.18,1.16,1.85,1*0B
$GNGSA,A,3,75,85,,,,,,,,,,,2.18,1.16,1.85,2*0C
$GNGSA,A,3,13,,,,,,,,,,,,2.18,1.16,1.85,3*00
$GNGSA,A,3,23,,,,,,,,,,,,2.18,1.16,1.85,4*04
$GPGSV,2,1,06,02,14,259,13,08,55,305,14,16,44,194,13,21,29,262,08,1*6E
$GPGSV,2,2,06,23,43,056,16,26,12,176,13,1*65
$GPGSV,2,1,05,15,03,028,,18,10,066,,27,84,067,,36,36,158,,0*62
$GPGSV,2,2,05,36,36,158,,0*5C
$GLGSV,1,1,03,70,07,161,14,75,41,277,22,85,42,297,17,1*4C
$GLGSV,2,1,06,68,27,041,,69,38,101,,74,22,215,,76,14,336,,0*71
$GLGSV,2,2,06,76,14,336,,83,05,078,,0*7C
$GAGSV,1,1,01,13,78,319,09,7*4D
$GAGSV,2,1,07,03,16,073,,05,05,026,,08,10,121,,15,37,059,,0*73
$GAGSV,2,2,07,15,37,059,,21,57,244,,26,30,256,,0*4A
$GBGSV,1,1,01,23,21,228,08,1*45
$GNGLL,4503.71561,N,00739.31923,E,114629.20,A,D*78
$GNRMC,114629.40,A,4503.71507,N,00739.31952,E,3.208,,240524,,,D,V*17
$GNVTG,,T,,M,3.208,N,5.942,K,D*3B
$GNGGA,114629.40,4503.71507,N,00739.31952,E,2,10,1.16,265.5,M,47.2,M,,0000*49
$GNGSA,A,3,21,08,23,02,16,26,,,,,,,2.18,1.16,1.85,1*0B
$GNGSA,A,3,75,85,,,,,,,,,,,2.18,1.16,1.85,2*0C
$GNGSA,A,3,13,,,,,,,,,,,,2.18,1.16,1.85,3*00
$GNGSA,A,3,23,,,,,,,,,,,,2.18,1.16,1.85,4*04
$GPGSV,2,1,06,02,14,259,13,08,55,305,15,16,44,194,13,21,29,262,08,1*6F
$GPGSV,2,2,06,23,43,056,16,26,12,176,13,1*65
$GPGSV,2,1,05,15,03,028,,18,10,066,,27,84,067,,36,36,158,,0*62
$GPGSV,2,2,05,36,36,158,,0*5C
$GLGSV,1,1,03,70,07,161,13,75,41,277,22,85,42,297,17,1*4B
$GLGSV,2,1,06,68,27,041,,69,38,101,,74,22,215,,76,14,336,,0*71
$GLGSV,2,2,06,76,14,336,,83,05,078,,0*7C
$GAGSV,1,1,01,13,78,319,09,7*4D
$GAGSV,2,1,07,03,16,073,,05,05,026,,08,10,121,,15,37,059,,0*73
$GAGSV,2,2,07,15,37,059,,21,57,244,,26,30,256,,0*4A
$GBGSV,1,1,01,23,21,228,08,1*45
$GNGLL,4503.71507,N,00739.31952,E,114629.40,A,D*78
$GNRMC,114629.60,A,4503.71504,N,00739.31960,E,1.654,,240524,,,D,V*18
$GNVTG,,T,,M,1.654,N,3.063,K,D*38
$GNGGA,114629.60,4503.71504,N,00739.31960,E,2,10,1.16,265.0,M,47.2,M,,0000*4C
$GNGSA,A,3,21,08,23,02,16,26,,,,,,,2.18,1.16,1.85,1*0B
$GNGSA,A,3,75,85,,,,,,,,,,,2.18,1.16,1.85,2*0C
$GNGSA,A,3,13,,,,,,,,,,,,2.18,1.16,1.85,3*00
$GNGSA,A,3,23,,,,,,,,,,,,2.18,1.16,1.85,4*04
$GPGSV,2,1,06,02,14,259,13,08,55,305,14,16,44,194,10,21,29,262,09,1*6C
$GPGSV,2,2,06,23,43,056,16,26,12,176,12,1*64
$GPGSV,2,1,05,15,03,028,,18,10,066,,27,84,067,,36,36,158,,0*62
$GPGSV,2,2,05,36,36,158,,0*5C
$GLGSV,1,1,03,70,07,161,12,75,41,277,22,85,42,297,17,1*4A
$GLGSV,2,1,06,68,27,041,,69,38,101,,74,22,215,,76,14,336,,0*71
$GLGSV,2,2,06,76,14,336,,83,05,078,,0*7C
$GAGSV,1,1,01,13,78,319,10,7*45
$GAGSV,2,1,07,03,16,073,,05,05,026,,08,10,121,,15,37,059,,0*73
$GAGSV,2,2,07,15,37,059,,21,57,244,,26,30,256,,0*4A
$GBGSV,1,1,01,23,21,228,08,1*45
$GNGLL,4503.71504,N,00739.31960,E,114629.60,A,D*78
$GNRMC,114629.80,A,4503.71505,N,00739.31962,E,1.017,,240524,,,D,V*14
$GNVTG,,T,,M,1.017,N,1.884,K,D*3A
$GNGGA,114629.80,4503.71505,N,00739.31962,E,2,10,1.16,264.5,M,47.2,M,,0000*45
$GNGSA,A,3,21,08,23,02,16,26,,,,,,,2.18,1.16,1.85,1*0B
$GNGSA,A,3,75,85,,,,,,,,,,,2.18,1.16,1.85,2*0C
$GNGSA,A,3,13,,,,,,,,,,,,2.18,1.16,1.85,3*00
$GNGSA,A,3,23,,,,,,,,,,,,2.18,1.16,1.85,4*04
$GPGSV,2,1,06,02,14,259,13,08,55,305,14,16,44,194,10,21,29,262,09,1*6C
$GPGSV,2,2,06,23,43,056,16,26,12,176,12,1*64
$GPGSV,2,1,05,15,03,028,,18,10,066,,27,84,067,,36,36,158,,0*62
$GPGSV,2,2,05,36,36,158,,0*5C
$GLGSV,1,1,03,70,07,161,12,75,41,277,22,85,42,297,17,1*4A
$GLGSV,2,1,06,68,27,041,,69,38,101,,74,22,215,,76,14,336,,0*71
$GLGSV,2,2,06,76,14,336,,83,05,078,,0*7C
$GAGSV,1,1,01,13,78,319,10,7*45
$GAGSV,2,1,07,03,16,073,,05,05,026,,08,10,121,,15,37,059,,0*73
$GAGSV,2,2,07,15,37,059,,21,57,244,,26,30,256,,0*4A
$GBGSV,1,1,01,23,21,228,08,1*45
$GNGLL,4503.71505,N,00739.31962,E,114629.80,A,D*75
$GNRMC,114630.00,A,4503.71579,N,00739.31938,E,0.740,,240524,,,D,V*14
$GNVTG,,T,,M,0.740,N,1.370,K,D*3E
$GNGGA,114630.00,4503.71579,N,00739.31938,E,2,10,1.16,262.4,M,47.2,M,,0000*46
$GNGSA,A,3,21,08,23,02,16,26,,,,,,,2.18,1.16,1.85,1*0B
$GNGSA,A,3,75,85,,,,,,,,,,,2.18,1.16,1.85,2*0C
$GNGSA,A,3,13,,,,,,,,,,,,2.18,1.16,1.85,3*00
$GNGSA,A,3,23,,,,,,,,,,,,2.18,1.16,1.85,4*04
$GPGSV,2,1,06,02,14,259,15,08,55,305,15,16,44,194,10,21,29,262,10,1*63
$GPGSV,2,2,06,23,43,056,16,26,12,176,13,1*65
$GPGSV,2,1,05,15,03,028,,18,10,066,,27,84,067,,36,36,158,,0*62
$GPGSV,2,2,05,36,36,158,,0*5C
$GLGSV,1,1,03,70,07,161,11,75,41,277,22,85,42,297,17,1*49
$GLGSV,2,1,06,68,27,041,,69,38,101,,74,22,215,,76,14,336,,0*71
$GLGSV,2,2,06,76,14,336,,83,05,078,,0*7C
$GAGSV,1,1,01,13,78,319,09,7*4D
$GAGSV,2,1,07,03,16,073,,05,05,026,,08,10,121,,15,37,059,,0*73
$GAGSV,2,2,07,15,37,059,,21,57,244,,26,30,256,,0*4A
$GBGSV,1,1,01,23,21,228,08,1*45
$GNGLL,4503.71579,N,00739.31938,E,114630.00,A,D*71
$GNRMC,114630.20,A,4503.71586,N,00739.31955,E,1.720,,240524,,,D,V*1A
$GNVTG,,T,,M,1.720,N,3.185,K,D*33
$GNGGA,114630.20,4503.71586,N,00739.31955,E,2,09,1.19,261.9,M,47.2,M,,0000*46
$GNGSA,A,3,21,08,23,02,16,26,,,,,,,2.20,1.19,1.85,1*0F
$GNGSA,A,3,75,85,,,,,,,,,,,2.20,1.19,1.85,2*08
$GNGSA,A,3,13,,,,,,,,,,,,2.20,1.19,1.85,3*04
$GNGSA,A,3,,,,,,,,,,,,,2.20,1.19,1.85,4*01
$GPGSV,2,1,06,02,14,259,15,08,55,305,15,16,44,194,10,21,29,262,10,1*63
$GPGSV,2,2,06,23,43,056,16,26,12,176,13,1*65
$GPGSV,2,1,05,15,03,028,,18,10,066,,27,84,067,,36,36,158,,0*62
$GPGSV,2,2,05,36,36,158,,0*5C
$GLGSV,1,1,03,70,07,161,10,75,41,277,22,85,42,297,17,1*48
$GLGSV,2,1,06,68,27,041,,69,38,101,,74,22,215,,76,14,336,,0*71
$GLGSV,2,2,06,76,14,336,,83,05,078,,0*7C
$GAGSV,1,1,01,13,78,319,10,7*45
$GAGSV,2,1,07,03,16,073,,05,05,026,,08,10,121,,15,37,059,,0*73
$GAGSV,2,2,07,15,37,059,,21,57,244,,26,30,256,,0*4A
$GBGSV,1,1,01,23,21,228,,0*4C
$GNGLL,4503.71586,N,00739.31955,E,114630.20,A,D*78
$GNRMC,114630.40,A,4503.71579,N,00739.31959,E,1.118,,240524,,,D,V*1D
$GNVTG,,T,,M,1.118,N,2.071,K,D*35
$GNGGA,114630.40,4503.71579,N,00739.31959,E,2,09,1.19,261.8,M,47.2,M,,0000*4D
$GNGSA,A,3,21,08,23,02,16,26,,,,,,,2.20,1.19,1.85,1*0F
$GNGSA,A,3,75,85,,,,,,,,,,,2.20,1.19,1.85,2*08
$GNGSA,A,3,13,,,,,,,,,,,,2.20,1.19,1.85,3*04
$GNGSA,A,3,,,,,,,,,,,,,2.20,1.19,1.85,4*01
$GPGSV,2,1,06,02,14,259,15,08,55,305,15,16,44,194,10,21,29,262,10,1*63
$GPGSV,2,2,06,23,43,056,16,26,12,176,13,1*65
$GPGSV,2,1,05,15,03,028,,18,10,066,,27,84,067,,36,36,158,,0*62
$GPGSV,2,2,05,36,36,158,,0*5C
$GLGSV,1,1,03,70,07,161,11,75,41,277,22,85,42,297,17,1*49
$GLGSV,2,1,06,68,27,041,,69,38,101,,74,22,215,,76,14,336,,0*71
$GLGSV,2,2,06,76,14,336,,83,05,078,,0*7C
$GAGSV,1,1,01,13,78,319,10,7*45
$GAGSV,2,1,07,03,16,073,,05,05,026,,08,10,121,,15,37,059,,0*73
$GAGSV,2,2,07,15,37,059,,21,57,244,,26,30,256,,0*4A
$GBGSV,1,1,01,24,,,16,3*74
$GBGSV,1,1,01,23,21,228,,0*4C
$GNGLL,4503.71579,N,00739.31959,E,114630.40,A,D*72
$GNRMC,114630.60,A,4503.71568,N,00739.31964,E,0.956,,240524,,,D,V*12
$GNVTG,,T,,M,0.956,N,1.770,K,D*33
$GNGGA,114630.60,4503.71568,N,00739.31964,E,2,09,1.19,261.9,M,47.2,M,,0000*40
$GNGSA,A,3,21,08,23,02,16,26,,,,,,,2.20,1.19,1.85,1*0F
$GNGSA,A,3,75,85,,,,,,,,,,,2.20,1.19,1.85,2*08
$GNGSA,A,3,13,,,,,,,,,,,,2.20,1.19,1.85,3*04
$GNGSA,A,3,,,,,,,,,,,,,2.20,1.19,1.85,4*01
$GPGSV,2,1,06,02,14,259,13,08,55,305,15,16,44,194,09,21,29,262,13,1*6E
$GPGSV,2,2,06,23,43,056,16,26,12,176,08,1*6F
$GPGSV,2,1,05,15,03,028,,18,10,066,,27,84,067,,36,36,158,,0*62
$GPGSV,2,2,05,36,36,158,,0*5C
$GLGSV,1,1,03,70,07,161,11,75,41,277,22,85,42,297,17,1*49
$GLGSV,2,1,06,68,27,041,,69,38,101,,74,22,215,,76,14,336,,0*71
$GLGSV,2,2,06,76,14,336,,83,05,078,,0*7C
$GAGSV,1,1,01,13,78,319,08,7*4C
$GAGSV,2,1,07,03,16,073,,05,05,026,,08,10,121,,15,37,059,,0*73
$GAGSV,2,2,07,15,37,059,,21,57,244,,26,30,256,,0*4A
$GBGSV,1,1,01,24,,,17,3*75
$GBGSV,1,1,01,23,21,228,,0*4C
$GNGLL,4503.71568,N,00739.31964,E,114630.60,A,D*7E
$GNRMC,114630.80,A,4503.71551,N,00739.31983,E,1.751,,240524,,,D,V*17
$GNVTG,,T,,M,1.751,N,3.243,K,D*3C
$GNGGA,114630.80,4503.71551,N,00739.31983,E,2,09,1.19,261.9,M,47.2,M,,0000*4D
$GNGSA,A,3,21,08,23,02,16,26,,,,,,,2.20,1.19,1.85,1*0F
$GNGSA,A,3,75,85,,,,,,,,,,,2.20,1.19,1.85,2*08
$GNGSA,A,3,13,,,,,,,,,,,,2.20,1.19,1.85,3*04
$GNGSA,A,3,,,,,,,,,,,,,2.20,1.19,1.85,4*01
$GPGSV,2,1,06,02,14,259,13,08,55,305,15,16,44,194,09,21,29,262,13,1*6E
$GPGSV,2,2,06,23,43,056,17,26,12,176,08,1*6E
$GPGSV,2,1,05,15,03,028,,18,10,066,,27,84,067,,36,36,158,,0*62
$GPGSV,2,2,05,36,36,158,,0*5C
$GLGSV,1,1,03,70,07,161,11,75,41,277,22,85,42,297,17,1*49
$GLGSV,2,1,06,68,27,041,,69,38,101,,74,22,215,,76,14,336,,0*71
$GLGSV,2,2,06,76,14,336,,83,05,078,,0*7C
$GAGSV,1,1,01,13,78,319,08,7*4C
$GAGSV,2,1,07,03,16,073,,05,05,026,,08,10,121,,15,37,059,,0*73
$GAGSV,2,2,07,15,37,059,,21,57,244,,26,30,256,,0*4A
$GBGSV,1,1,01,24,,,17,3*75
$GBGSV,1,1,01,23,21,228,,0*4C
$GNGLL,4503.71551,N,00739.31983,E,114630.80,A,D*73
$GNRMC,114631.00,A,4503.71496,N,00739.31998,E,4.767,,240524,,,D,V*1E
$GNVTG,,T,,M,4.767,N,8.829,K,D*31
$GNGGA,114631.00,4503.71496,N,00739.31998,E,2,09,1.19,262.5,M,47.2,M,,0000*4B
$GNGSA,A,3,21,08,23,02,16,26,,,,,,,2.20,1.19,1.85,1*0F
$GNGSA,A,3,75,85,,,,,,,,,,,2.20,1.19,1.85,2*08
$GNGSA,A,3,13,,,,,,,,,,,,2.20,1.19,1.85,3*04
$GNGSA,A,3,,,,,,,,,,,,,2.20,1.19,1.85,4*01
$GPGSV,2,1,06,02,14,259,16,08,55,305,15,16,44,194,09,21,29,262,11,1*69
$GPGSV,2,2,06,23,43,056,17,26,12,176,08,1*6E
$GPGSV,2,1,05,15,03,028,,18,10,066,,27,84,067,,36,36,158,,0*62
$GPGSV,2,2,05,36,36,158,,0*5C
$GLGSV,1,1,03,70,07,161,12,75,41,277,22,85,42,297,17,1*4A
$GLGSV,2,1,06,68,27,041,,69,38,101,,74,22,215,,76,14,336,,0*71
$GLGSV,2,2,06,76,14,336,,83,05,078,,0*7C
$GAGSV,1,1,01,13,78,319,09,7*4D
$GAGSV,2,1,07,03,16,073,,05,05,026,,08,10,121,,15,37,059,,0*73
$GAGSV,2,2,07,15,37,059,,21,57,244,,26,30,256,,0*4A
$GBGSV,1,1,01,24,,,17,3*75
$GBGSV,1,1,01,23,21,228,,0*4C
$GNGLL,4503.71496,N,00739.31998,E,114631.00,A,D*7A
$GNRMC,114631.20,A,4503.71481,N,00739.31997,E,3.908,,240524,,,D,V*15
$GNVTG,,T,,M,3.908,N,7.237,K,D*3B
$GNGGA,114631.20,4503.71481,N,00739.31997,E,2,09,1.19,262.2,M,47.2,M,,0000*47
$GNGSA,A,3,21,08,23,02,16,26,,,,,,,2.20,1.19,1.85,1*0F
$GNGSA,A,3,75,85,,,,,,,,,,,2.20,1.19,1.85,2*08
$GNGSA,A,3,13,,,,,,,,,,,,2.20,1.19,1.85,3*04
$GNGSA,A,3,,,,,,,,,,,,,2.20,1.19,1.85,4*01
$GPGSV,2,1,06,02,14,259,16,08,55,305,15,16,44,194,09,21,29,262,11,1*69
$GPGSV,2,2,06,23,43,056,17,26,12,176,08,1*6E
$GPGSV,2,1,05,15,03,027,,18,10,066,,27,84,067,,36,36,158,,0*6D
$GPGSV,2,2,05,36,36,158,,0*5C
$GLGSV,1,1,03,70,07,161,12,75,41,277,22,85,42,297,17,1*4A
$GLGSV,2,1,06,68,27,041,,69,38,101,,74,22,215,,76,14,336,,0*71
$GLGSV,2,2,06,76,14,336,,83,05,078,,0*7C
$GAGSV,1,1,01,13,78,319,09,7*4D
$GAGSV,2,1,07,03,16,073,,05,05,026,,08,10,121,,15,37,059,,0*73
$GAGSV,2,2,07,15,37,059,,21,57,244,,26,30,256,,0*4A
$GBGSV,1,1,01,24,,,16,3*74
$GBGSV,1,1,01,23,21,228,,0*4C
$GNGLL,4503.71481,N,00739.31997,E,114631.20,A,D*71
$GNRMC,114631.40,A,4503.71451,N,00739.32003,E,4.483,,240524,,,D,V*10
$GNVTG,,T,,M,4.483,N,8.303,K,D*3B
$GNGGA,114631.40,4503.71451,N,00739.32003,E,2,09,1.19,262.0,M,47.2,M,,0000*49
$GNGSA,A,3,21,08,23,02,16,26,,,,,,,2.20,1.19,1.85,1*0F
$GNGSA,A,3,75,85,,,,,,,,,,,2.20,1.19,1.85,2*08
$GNGSA,A,3,13,,,,,,,,,,,,2.20,1.19,1.85,3*04
$GNGSA,A,3,,,,,,,,,,,,,2.20,1.19,1.85,4*01
$GPGSV,2,1,06,02,14,259,13,08,55,305,15,16,44,194,12,21,29,262,12,1*65
$GPGSV,2,2,06,23,43,056,17,26,12,176,10,1*67
$GPGSV,2,1,05,15,03,027,,18,10,066,,27,84,067,,36,36,158,,0*6D
$GPGSV,2,2,05,36,36,158,,0*5C
$GLGSV,1,1,03,70,07,161,13,75,41,277,22,85,42,297,17,1*4B
$GLGSV,2,1,06,68,27,041,,69,38,101,,74,22,215,,76,14,336,,0*71
$GLGSV,2,2,06,76,14,336,,83,05,078,,0*7C
$GAGSV,1,1,01,13,78,319,08,7*4C
$GAGSV,2,1,07,03,16,073,,05,05,026,,08,10,121,,15,37,059,,0*73
$GAGSV,2,2,07,15,37,059,,21,57,244,,26,30,256,,0*4A
$GBGSV,1,1,01,24,,,16,3*74
$GBGSV,1,1,01,23,21,228,,0*4C
$GNGLL,4503.71451,N,00739.32003,E,114631.40,A,D*7D
$GNRMC,114631.60,A,4503.71381,N,00739.32028,E,6.440,171.83,240524,,,D,V*0E
$GNVTG,171.83,T,,M,6.440,N,11.928,K,D*1F
$GNGGA,114631.60,4503.71381,N,00739.32028,E,2,09,1.19,262.0,M,47.2,M,,0000*48
$GNGSA,A,3,21,08,23,02,16,26,,,,,,,2.20,1.19,1.85,1*0F
$GNGSA,A,3,75,85,,,,,,,,,,,2.20,1.19,1.85,2*08
$GNGSA,A,3,13,,,,,,,,,,,,2.20,1.19,1.85,3*04
$GNGSA,A,3,,,,,,,,,,,,,2.20,1.19,1.85,4*01
$GPGSV,2,1,06,02,14,259,13,08,55,305,15,16,44,194,12,21,29,262,12,1*65
$GPGSV,2,2,06,23,43,056,18,26,12,176,09,1*60
$GPGSV,2,1,05,15,03,027,,18,10,066,,27,84,067,,36,36,158,,0*6D
$GPGSV,2,2,05,36,36,158,,0*5C
$GLGSV,1,1,03,70,07,161,13,75,41,277,22,85,42,297,17,1*4B
$GLGSV,2,1,06,68,27,041,,69,38,101,,74,22,215,,76,14,336,,0*71
$GLGSV,2,2,06,76,14,336,,83,05,078,,0*7C
$GAGSV,1,1,01,13,78,319,08,7*4C
$GAGSV,2,1,07,03,16,073,,05,05,026,,08,10,121,,15,37,059,,0*73
$GAGSV,2,2,07,15,37,059,,21,57,244,,26,30,256,,0*4A
$GBGSV,1,1,01,24,,,15,3*77
$GBGSV,1,1,01,23,21,228,,0*4C
$GNGLL,4503.71381,N,00739.32028,E,114631.60,A,D*7C
$GNRMC,114631.80,A,4503.71299,N,00739.32059,E,8.363,166.51,240524,,,D,V*0F
$GNVTG,166.51,T,,M,8.363,N,15.488,K,D*1D
$GNGGA,114631.80,4503.71299,N,00739.32059,E,2,09,1.19,262.7,M,47.2,M,,0000*4F
$GNGSA,A,3,21,08,23,02,16,26,,,,,,,2.20,1.19,1.85,1*0F
$GNGSA,A,3,75,85,,,,,,,,,,,2.20,1.19,1.85,2*08
$GNGSA,A,3,13,,,,,,,,,,,,2.20,1.19,1.85,3*04
$GNGSA,A,3,,,,,,,,,,,,,2.20,1.19,1.85,4*01
$GPGSV,2,1,06,02,14,259,10,08,55,305,15,16,44,194,10,21,29,262,10,1*66
$GPGSV,2,2,06,23,43,056,17,26,12,176,12,1*65
$GPGSV,2,1,05,15,03,027,,18,10,066,,27,84,067,,36,36,158,,0*6D
$GPGSV,2,2,05,36,36,158,,0*5C
$GLGSV,1,1,03,70,07,161,13,75,41,277,22,85,42,297,18,1*44
$GLGSV,2,1,06,68,27,041,,69,38,101,,74,22,215,,76,14,336,,0*71
$GLGSV,2,2,06,76,14,336,,83,05,078,,0*7C
$GAGSV,1,1,01,13,78,319,09,7*4D
$GAGSV,2,1,07,03,16,073,,05,05,026,,08,10,121,,15,37,059,,0*73
$GAGSV,2,2,07,15,37,059,,21,57,244,,26,30,256,,0*4A
$GBGSV,1,1,01,23,21,228,,0*4C
$GNGLL,4503.71299,N,00739.32059,E,114631.80,A,D*7C
$GNRMC,114632.00,A,4503.71277,N,00739.32096,E,7.610,,240524,,,D,V*12
$GNVTG,,T,,M,7.610,N,14.094,K,D*00
$GNGGA,114632.00,4503.71277,N,00739.32096,E,2,09,1.19,262.9,M,47.2,M,,0000*49
$GNGSA,A,3,21,08,23,02,16,26,,,,,,,2.20,1.19,1.85,1*0F
$GNGSA,A,3,75,85,,,,,,,,,,,2.20,1.19,1.85,2*08
$GNGSA,A,3,13,,,,,,,,,,,,2.20,1.19,1.85,3*04
$GNGSA,A,3,,,,,,,,,,,,,2.20,1.19,1.85,4*01
$GPGSV,2,1,06,02,14,259,10,08,55,305,15,16,44,194,10,21,29,262,10,1*66
$GPGSV,2,2,06,23,43,056,17,26,12,176,12,1*65
$GPGSV,2,1,05,15,03,027,,18,10,066,,27,84,067,,36,36,158,,0*6D
$GPGSV,2,2,05,36,36,158,,0*5C
$GLGSV,1,1,03,70,07,161,13,75,41,277,22,85,42,297,17,1*4B
$GLGSV,2,1,06,68,27,041,,69,38,101,,74,22,215,,76,14,336,,0*71
$GLGSV,2,2,06,76,14,336,,83,05,078,,0*7C
$GAGSV,1,1,01,13,78,319,09,7*4D
$GAGSV,2,1,07,03,16,073,,05,05,026,,08,10,121,,15,37,059,,0*73
$GAGSV,2,2,07,15,37,059,,21,57,244,,26,30,256,,0*4A
$GBGSV,1,1,01,23,21,228,,0*4C
$GNGLL,4503.71277,N,00739.32096,E,114632.00,A,D*74
$GNRMC,114632.20,A,4503.71234,N,00739.32120,E,7.412,164.46,240524,,,D,V*04
$GNVTG,164.46,T,,M,7.412,N,13.727,K,D*17
$GNGGA,114632.20,4503.71234,N,00739.32120,E,2,09,1.19,263.2,M,47.2,M,,0000*4A
$GNGSA,A,3,21,08,23,02,16,26,,,,,,,2.20,1.19,1.85,1*0F
$GNGSA,A,3,75,85,,,,,,,,,,,2.20,1.19,1.85,2*08
$GNGSA,A,3,13,,,,,,,,,,,,2.20,1.19,1.85,3*04
$GNGSA,A,3,,,,,,,,,,,,,2.20,1.19,1.85,4*01
$GPGSV,2,1,06,02,14,259,12,08,55,305,15,16,43,193,09,21,29,262,09,1*64
$GPGSV,2,2,06,23,43,056,17,26,12,176,09,1*6F
$GPGSV,2,1,05,15,03,027,,18,10,066,,27,84,067,,36,36,158,,0*6D
$GPGSV,2,2,05,36,36,158,,0*5C
$GLGSV,1,1,03,70,07,161,13,75,41,277,22,85,42,297,17,1*4B
$GLGSV,2,1,06,68,27,041,,69,38,101,,74,22,215,,76,14,336,,0*71
$GLGSV,2,2,06,76,14,336,,83,05,078,,0*7C
$GAGSV,1,1,01,13,78,319,09,7*4D
$GAGSV,2,1,07,03,16,073,,05,05,026,,08,10,121,,15,37,059,,0*73
$GAGSV,2,2,07,15,37,059,,21,57,244,,26,30,256,,0*4A
$GBGSV,1,1,01,23,21,228,,0*4C
$GNGLL,4503.71234,N,00739.32120,E,114632.20,A,D*7D
$GNRMC,114632.40,A,4503.71269,N,00739.32130,E,3.957,,240524,,,D,V*1C
$GNVTG,,T,,M,3.957,N,7.329,K,D*3F
$GNGGA,114632.40,4503.71269,N,00739.32130,E,2,09,1.19,262.6,M,47.2,M,,0000*40
$GNGSA,A,3,21,08,23,02,16,26,,,,,,,2.20,1.19,1.85,1*0F
$GNGSA,A,3,75,85,,,,,,,,,,,2.20,1.19,1.85,2*08
$GNGSA,A,3,13,,,,,,,,,,,,2.20,1.19,1.85,3*04
$GNGSA,A,3,,,,,,,,,,,,,2.20,1.19,1.85,4*01
$GPGSV,2,1,06,02,14,259,12,08,55,305,15,16,43,193,09,21,29,262,09,1*64
$GPGSV,2,2,06,23,43,056,17,26,12,176,09,1*6F
$GPGSV,2,1,05,15,03,027,,18,10,066,,27,84,067,,36,36,158,,0*6D
$GPGSV,2,2,05,36,36,158,,0*5C
$GLGSV,1,1,03,70,07,161,13,75,41,277,22,85,42,297,18,1*44
$GLGSV,2,1,06,68,27,041,,69,38,101,,74,22,215,,76,14,336,,0*71
$GLGSV,2,2,06,76,14,336,,83,05,078,,0*7C
$GAGSV,1,1,01,13,78,319,09,7*4D
$GAGSV,2,1,07,03,16,073,,05,05,026,,08,10,121,,15,37,059,,0*73
$GAGSV,2,2,07,15,37,059,,21,57,244,,26,30,256,,0*4A
$GBGSV,1,1,01,23,21,228,,0*4C
$GNGLL,4503.71269,N,00739.32130,E,114632.40,A,D*72
$GNRMC,114632.60,A,4503.71299,N,00739.32146,E,2.707,,240524,,,D,V*1A
$GNVTG,,T,,M,2.707,N,5.013,K,D*3D
$GNGGA,114632.60,4503.71299,N,00739.32146,E,2,08,1.55,262.2,M,47.2,M,,0000*41
$GNGSA,A,3,21,08,23,02,26,,,,,,,,2.80,1.55,2.34,1*03
$GNGSA,A,3,75,85,,,,,,,,,,,2.80,1.55,2.34,2*03
$GNGSA,A,3,13,,,,,,,,,,,,2.80,1.55,2.34,3*0F
$GNGSA,A,3,,,,,,,,,,,,,2.80,1.55,2.34,4*0A
$GPGSV,2,1,06,02,14,259,10,08,55,305,15,16,43,193,07,21,29,262,11,1*61
$GPGSV,2,2,06,23,43,056,18,26,12,176,07,1*6E
$GPGSV,2,1,05,15,03,027,,18,10,066,,27,84,067,,36,36,158,,0*6D
$GPGSV,2,2,05,36,36,158,,0*5C
$GLGSV,1,1,03,70,07,161,13,75,41,277,22,85,42,297,18,1*44
$GLGSV,2,1,06,68,27,041,,69,38,101,,74,22,215,,76,14,336,,0*71
$GLGSV,2,2,06,76,14,336,,83,05,078,,0*7C
$GAGSV,1,1,01,13,78,319,09,7*4D
$GAGSV,2,1,07,03,16,073,,05,05,026,,08,10,121,,15,37,059,,0*73
$GAGSV,2,2,07,15,37,059,,21,57,244,,26,30,256,,0*4A
$GBGSV,1,1,01,23,21,228,,0*4C
$GNGLL,4503.71299,N,00739.32146,E,114632.60,A,D*7E
$GNRMC,114632.80,A,4503.71313,N,00739.32165,E,2.035,,240524,,,D,V*10
$GNVTG,,T,,M,2.035,N,3.770,K,D*3F
$GNGGA,114632.80,4503.71313,N,00739.32165,E,2,08,1.55,261.6,M,47.2,M,,0000*4A
$GNGSA,A,3,21,08,23,02,26,,,,,,,,2.80,1.55,2.34,1*03
$GNGSA,A,3,75,85,,,,,,,,,,,2.80,1.55,2.34,2*03
$GNGSA,A,3,13,,,,,,,,,,,,2.80,1.55,2.34,3*0F
$GNGSA,A,3,,,,,,,,,,,,,2.80,1.55,2.34,4*0A
$GPGSV,2,1,06,02,14,259,10,08,55,305,15,16,43,193,07,21,29,262,11,1*61
$GPGSV,2,2,06,23,43,056,18,26,12,176,07,1*6E
$GPGSV,2,1,05,15,03,027,,18,10,066,,27,84,067,,36,36,158,,0*6D
$GPGSV,2,2,05,36,36,158,,0*5C
$GLGSV,1,1,03,70,07,161,12,75,41,277,22,85,42,297,18,1*45
$GLGSV,2,1,06,68,27,041,,69,38,101,,74,22,215,,76,14,336,,0*71
$GLGSV,2,2,06,76,14,336,,83,05,078,,0*7C
$GAGSV,1,1,01,13,78,319,09,7*4D
$GAGSV,2,1,07,03,16,073,,05,05,026,,08,10,121,,15,37,059,,0*73
$GAGSV,2,2,07,15,37,059,,21,57,244,,26,30,256,,0*4A
$GBGSV,1,1,01,23,21,228,,0*4C
$GNGLL,4503.71313,N,00739.32165,E,114632.80,A,D*72
$GNRMC,114633.00,A,4503.71426,N,00739.32149,E,1.275,,240524,,,D,V*13
$GNVTG,,T,,M,1.275,N,2.361,K,D*3F
$GNGGA,114633.00,4503.71426,N,00739.32149,E,2,09,1.19,260.9,M,47.2,M,,0000*4B
$GNGSA,A,3,21,08,23,02,16,26,,,,,,,2.20,1.19,1.85,1*0F
$GNGSA,A,3,75,85,,,,,,,,,,,2.20,1.19,1.85,2*08
$GNGSA,A,3,13,,,,,,,,,,,,2.20,1.19,1.85,3*04
$GNGSA,A,3,,,,,,,,,,,,,2.20,1.19,1.85,4*01
$GPGSV,2,1,06,02,14,259,12,08,55,305,16,16,43,193,12,21,29,262,10,1*65
$GPGSV,2,2,06,23,43,056,17,26,12,176,12,1*65
$GPGSV,2,1,05,15,03,027,,18,10,066,,27,84,067,,36,36,158,,0*6D
$GPGSV,2,2,05,36,36,158,,0*5C
$GLGSV,1,1,03,70,07,161,11,75,41,277,22,85,42,297,18,1*46
$GLGSV,2,1,06,68,27,041,,69,38,101,,74,22,215,,76,14,336,,0*71
$GLGSV,2,2,06,76,14,336,,83,05,078,,0*7C
$GAGSV,1,1,01,13,78,319,08,7*4C
$GAGSV,2,1,07,03,16,073,,05,05,026,,08,10,121,,15,37,059,,0*73
$GAGSV,2,2,07,15,37,059,,21,57,244,,26,30,256,,0*4A
$GBGSV,1,1,01,23,21,228,,0*4C
$GNGLL,4503.71426,N,00739.32149,E,114633.00,A,D*74
$GNRMC,114633.20,A,4503.71417,N,00739.32160,E,0.937,,240524,,,D,V*14
$GNVTG,,T,,M,0.937,N,1.736,K,D*36
$GNGGA,114633.20,4503.71417,N,00739.32160,E,2,09,1.19,261.1,M,47.2,M,,0000*49
$GNGSA,A,3,21,08,23,02,16,26,,,,,,,2.20,1.19,1.85,1*0F
$GNGSA,A,3,75,85,,,,,,,,,,,2.20,1.19,1.85,2*08
$GNGSA,A,3,13,,,,,,,,,,,,2.20,1.19,1.85,3*04
$GNGSA,A,3,,,,,,,,,,,,,2.20,1.19,1.85,4*01
$GPGSV,2,1,06,02,14,259,12,08,55,305,15,16,43,193,12,21,29,262,10,1*66
$GPGSV,2,2,06,23,43,056,17,26,12,176,12,1*65
$GPGSV,2,1,05,15,03,027,,18,10,066,,27,84,067,,36,36,158,,0*6D
$GPGSV,2,2,05,36,36,158,,0*5C
$GLGSV,1,1,03,70,07,161,11,75,41,277,22,85,42,297,18,1*46
$GLGSV,2,1,06,68,27,041,,69,38,101,,74,22,215,,76,14,336,,0*71
$GLGSV,2,2,06,76,14,336,,83,05,078,,0*7C
$GAGSV,1,1,01,13,78,319,08,7*4C
$GAGSV,2,1,07,03,16,073,,05,05,026,,08,10,121,,15,37,059,,0*73
$GAGSV,2,2,07,15,37,059,,21,57,244,,26,30,256,,0*4A
$GBGSV,1,1,01,23,21,228,,0*4C
$GNGLL,4503.71417,N,00739.32160,E,114633.20,A,D*7F
$GNRMC,114633.40,A,4503.71395,N,00739.32166,E,2.002,,240524,,,D,V*14
$GNVTG,,T,,M,2.002,N,3.708,K,D*34
$GNGGA,114633.40,4503.71395,N,00739.32166,E,2,09,1.19,261.1,M,47.2,M,,0000*44
$GNGSA,A,3,21,08,23,02,16,26,,,,,,,2.20,1.19,1.85,1*0F
$GNGSA,A,3,75,85,,,,,,,,,,,2.20,1.19,1.85,2*08
$GNGSA,A,3,13,,,,,,,,,,,,2.20,1.19,1.85,3*04
$GNGSA,A,3,,,,,,,,,,,,,2.20,1.19,1.85,4*01
$GPGSV,2,1,06,02,14,259,12,08,55,305,15,16,43,193,12,21,29,262,10,1*66
$GPGSV,2,2,06,23,43,056,17,26,12,176,12,1*65
$GPGSV,2,1,05,15,03,027,,18,10,066,,27,84,067,,36,36,158,,0*6D
$GPGSV,2,2,05,36,36,158,,0*5C
$GLGSV,1,1,03,70,07,161,11,75,41,277,22,85,42,297,18,1*46
$GLGSV,2,1,06,68,27,041,,69,38,101,,74,22,215,,76,14,336,,0*71
$GLGSV,2,2,06,76,14,336,,83,05,078,,0*7C
$GAGSV,1,1,01,13,78,319,08,7*4C
$GAGSV,2,1,07,03,16,073,,05,05,026,,08,10,121,,15,37,059,,0*73
$GAGSV,2,2,07,15,37,059,,21,57,244,,26,30,256,,0*4A
$GBGSV,1,1,01,23,21,228,,0*4C
$GNGLL,4503.71395,N,00739.32166,E,114633.40,A,D*72
$GNRMC,114633.60,A,4503.71402,N,00739.32157,E,2.063,,240524,,,D,V*1A
$GNVTG,,T,,M,2.063,N,3.821,K,D*37
$GNGGA,114633.60,4503.71402,N,00739.32157,E,2,09,1.19,260.3,M,47.2,M,,0000*4E
$GNGSA,A,3,21,08,23,02,16,26,,,,,,,2.20,1.19,1.85,1*0F
$GNGSA,A,3,75,85,,,,,,,,,,,2.20,1.19,1.85,2*08
$GNGSA,A,3,13,,,,,,,,,,,,2.20,1.19,1.85,3*04
$GNGSA,A,3,,,,,,,,,,,,,2.20,1.19,1.85,4*01
$GPGSV,2,1,06,02,14,259,09,08,55,305,15,16,43,193,10,21,29,262,12,1*6C
$GPGSV,2,2,06,23,43,056,17,26,12,176,09,1*6F
$GPGSV,2,1,05,15,03,027,,18,10,066,,27,84,067,,36,36,158,,0*6D
$GPGSV,2,2,05,36,36,158,,0*5C
$GLGSV,1,1,03,70,07,161,11,75,41,277,22,85,42,297,18,1*46
$GLGSV,2,1,06,68,27,041,,69,38,101,,74,22,215,,76,14,336,,0*71
$GLGSV,2,2,06,76,14,336,,83,05,078,,0*7C
$GAGSV,1,1,01,13,78,319,08,7*4C
$GAGSV,2,1,07,03,16,073,,05,05,026,,08,10,121,,15,37,059,,0*73
$GAGSV,2,2,07,15,37,059,,21,57,244,,26,30,256,,0*4A
$GBGSV,1,1,01,23,21,228,,0*4C
$GNGLL,4503.71402,N,00739.32157,E,114633.60,A,D*7B
$GNRMC,114633.80,A,4503.71389,N,00739.32162,E,0.627,,240524,,,D,V*12
$GNVTG,,T,,M,0.627,N,1.162,K,D*3F
$GNGGA,114633.80,4503.71389,N,00739.32162,E,2,09,1.19,260.6,M,47.2,M,,0000*47
$GNGSA,A,3,21,08,23,02,16,26,,,,,,,2.20,1.19,1.85,1*0F
$GNGSA,A,3,75,85,,,,,,,,,,,2.20,1.19,1.85,2*08
$GNGSA,A,3,13,,,,,,,,,,,,2.20,1.19,1.85,3*04
$GNGSA,A,3,,,,,,,,,,,,,2.20,1.19,1.85,4*01
$GPGSV,2,1,06,02,14,259,09,08,55,305,14,16,43,193,10,21,29,262,12,1*6D
$GPGSV,2,2,06,23,43,056,17,26,12,176,09,1*6F
$GPGSV,2,1,05,15,03,027,,18,10,066,,27,84,067,,36,36,158,,0*6D
$GPGSV,2,2,05,36,36,158,,0*5C
$GLGSV,1,1,03,70,07,161,11,75,41,277,22,85,42,297,18,1*46
$GLGSV,2,1,06,68,27,041,,69,38,101,,74,22,215,,76,14,336,,0*71
$GLGSV,2,2,06,76,14,336,,83,05,078,,0*7C
$GAGSV,1,1,01,13,78,319,08,7*4C
$GAGSV,2,1,07,03,16,073,,05,05,026,,08,10,121,,15,37,059,,0*73
$GAGSV,2,2,07,15,37,059,,21,57,244,,26,30,256,,0*4A
$GBGSV,1,1,01,23,21,228,,0*4C
$GNGLL,4503.71389,N,00739.32162,E,114633.80,A,D*77
$GNRMC,114634.00,A,4503.71419,N,00739.32157,E,2.661,,240524,,,D,V*15
$GNVTG,,T,,M,2.661,N,4.928,K,D*3C
$GNGGA,114634.00,4503.71419,N,00739.32157,E,2,08,1.22,260.2,M,47.2,M,,0000*4D
$GNGSA,A,3,21,08,23,02,16,26,,,,,,,2.54,1.22,2.23,1*0B
$GNGSA,A,3,75,85,,,,,,,,,,,2.54,1.22,2.23,2*0C
$GNGSA,A,3,,,,,,,,,,,,,2.54,1.22,2.23,3*02
$GNGSA,A,3,,,,,,,,,,,,,2.54,1.22,2.23,4*05
$GPGSV,2,1,06,02,14,259,07,08,55,305,14,16,43,193,10,21,29,262,08,1*68
$GPGSV,2,2,06,23,43,056,18,26,12,176,08,1*61
$GPGSV,2,1,05,15,03,027,,18,10,066,,27,84,067,,36,36,158,,0*6D
$GPGSV,2,2,05,36,36,158,,0*5C
$GLGSV,1,1,03,70,07,161,11,75,41,277,22,85,42,297,18,1*46
$GLGSV,2,1,06,68,27,041,,69,38,101,,74,22,215,,76,14,336,,0*71
$GLGSV,2,2,06,76,14,336,,83,05,078,,0*7C
$GAGSV,1,1,01,13,78,319,07,7*43
$GAGSV,2,1,07,03,16,073,,05,05,026,,08,10,121,,15,37,059,,0*73
$GAGSV,2,2,07,15,37,059,,21,57,244,,26,30,256,,0*4A
$GBGSV,1,1,01,23,21,228,,0*4C
$GNGLL,4503.71419,N,00739.32157,E,114634.00,A,D*70
$GNRMC,114634.20,A,4503.71400,N,00739.32167,E,0.154,,240524,,,D,V*1F
$GNVTG,,T,,M,0.154,N,0.286,K,D*34
$GNGGA,114634.20,4503.71400,N,00739.32167,E,2,08,1.22,259.8,M,47.2,M,,0000*44
$GNGSA,A,3,21,08,23,02,16,26,,,,,,,2.54,1.22,2.23,1*0B
$GNGSA,A,3,75,85,,,,,,,,,,,2.54,1.22,2.23,2*0C
$GNGSA,A,3,,,,,,,,,,,,,2.54,1.22,2.23,3*02
$GNGSA,A,3,,,,,,,,,,,,,2.54,1.22,2.23,4*05
$GPGSV,2,1,06,02,14,259,07,08,55,305,14,16,43,193,10,21,29,262,08,1*68
$GPGSV,2,2,06,23,43,056,17,26,12,176,08,1*6E
$GPGSV,2,1,05,15,03,027,,18,09,067,,27,84,067,,36,36,158,,0*64
$GPGSV,2,2,05,36,36,158,,0*5C
$GLGSV,1,1,03,70,07,161,11,75,41,277,22,85,42,297,18,1*46
$GLGSV,2,1,06,68,27,041,,69,38,101,,74,22,215,,76,14,336,,0*71
$GLGSV,2,2,06,76,14,336,,83,05,078,,0*7C
$GAGSV,1,1,01,13,78,319,07,7*43
$GAGSV,2,1,07,03,16,073,,05,05,026,,08,10,121,,15,37,059,,0*73
$GAGSV,2,2,07,15,37,059,,21,57,244,,26,30,256,,0*4A
$GBGSV,1,1,01,23,21,228,,0*4C
$GNGLL,4503.71400,N,00739.32167,E,114634.20,A,D*79
$GNRMC,114634.40,A,4503.71398,N,00739.32180,E,1.094,,240524,,,D,V*1A
$GNVTG,,T,,M,1.094,N,2.025,K,D*31
$GNGGA,114634.40,4503.71398,N,00739.32180,E,2,09,1.19,259.2,M,47.2,M,,0000*4E
$GNGSA,A,3,21,08,23,02,16,26,,,,,,,2.20,1.19,1.85,1*0F
$GNGSA,A,3,75,85,,,,,,,,,,,2.20,1.19,1.85,2*08
$GNGSA,A,3,13,,,,,,,,,,,,2.20,1.19,1.85,3*04
$GNGSA,A,3,,,,,,,,,,,,,2.20,1.19,1.85,4*01
$GPGSV,2,1,06,02,14,259,09,08,55,305,14,16,43,193,10,21,29,262,09,1*67
$GPGSV,2,2,06,23,43,056,17,26,12,176,09,1*6F
$GPGSV,2,1,05,15,03,027,,18,09,067,,27,84,067,,36,36,158,,0*64
$GPGSV,2,2,05,36,36,158,,0*5C
$GLGSV,1,1,03,70,07,161,11,75,41,277,22,85,42,297,18,1*46
$GLGSV,2,1,06,68,27,041,,69,38,101,,74,22,215,,76,14,336,,0*71
$GLGSV,2,2,06,76,14,336,,83,05,078,,0*7C
$GAGSV,1,1,01,13,78,319,11,7*44
$GAGSV,2,1,07,03,16,073,,05,05,026,,08,10,121,,15,37,059,,0*73
$GAGSV,2,2,07,15,37,059,,21,57,244,,26,30,256,,0*4A
$GBGSV,1,1,01,23,21,228,,0*4C
$GNGLL,4503.71398,N,00739.32180,E,114634.40,A,D*70
$GNRMC,114634.60,A,4503.71367,N,00739.32192,E,2.407,,240524,,,D,V*16
$GNVTG,,T,,M,2.407,N,4.458,K,D*34
$GNGGA,114634.60,4503.71367,N,00739.32192,E,2,09,1.19,258.7,M,47.2,M,,0000*4B
$GNGSA,A,3,21,08,23,02,16,26,,,,,,,2.20,1.19,1.85,1*0F
$GNGSA,A,3,75,85,,,,,,,,,,,2.20,1.19,1.85,2*08
$GNGSA,A,3,13,,,,,,,,,,,,2.20,1.19,1.85,3*04
$GNGSA,A,3,,,,,,,,,,,,,2.20,1.19,1.85,4*01
$GPGSV,2,1,06,02,14,259,09,08,55,305,14,16,43,193,10,21,29,262,09,1*67
$GPGSV,2,2,06,23,43,056,17,26,12,176,09,1*6F
$GPGSV,2,1,05,15,03,027,,18,09,067,,27,84,067,,36,36,158,,0*64
$GPGSV,2,2,05,36,36,158,,0*5C
$GLGSV,1,1,03,70,07,161,11,75,41,277,22,85,42,297,18,1*46
$GLGSV,2,1,06,68,27,041,,69,38,101,,74,22,215,,76,14,336,,0*71
$GLGSV,2,2,06,76,14,336,,83,05,078,,0*7C
$GAGSV,1,1,01,13,78,319,11,7*44
$GAGSV,2,1,07,03,16,073,,05,05,026,,08,10,121,,15,37,059,,0*73
$GAGSV,2,2,07,15,37,059,,21,57,244,,26,30,256,,0*4A
$GBGSV,1,1,01,23,21,228,,0*4C
$GNGLL,4503.71367,N,00739.32192,E,114634.60,A,D*71
$GNRMC,114634.80,A,4503.71335,N,00739.32200,E,3.077,,240524,,,D,V*15
$GNVTG,,T,,M,3.077,N,5.699,K,D*38
$GNGGA,114634.80,4503.71335,N,00739.32200,E,2,09,1.19,259.0,M,47.2,M,,0000*4C
$GNGSA,A,3,21,08,23,02,16,26,,,,,,,2.20,1.19,1.85,1*0F
$GNGSA,A,3,75,85,,,,,,,,,,,2.20,1.19,1.85,2*08
$GNGSA,A,3,13,,,,,,,,,,,,2.20,1.19,1.85,3*04
$GNGSA,A,3,,,,,,,,,,,,,2.20,1.19,1.85,4*01
$GPGSV,2,1,06,02,14,259,11,08,55,305,14,16,43,193,10,21,29,262,13,1*65
$GPGSV,2,2,06,23,43,056,17,26,12,176,12,1*65
$GPGSV,2,1,05,15,03,027,,18,09,067,,27,84,067,,36,36,158,,0*64
$GPGSV,2,2,05,36,36,158,,0*5C
$GLGSV,1,1,03,70,07,161,11,75,41,277,22,85,42,297,18,1*46
$GLGSV,2,1,06,68,27,041,,69,38,101,,74,22,215,,76,14,336,,0*71
$GLGSV,2,2,06,76,14,336,,83,05,078,,0*7C
$GAGSV,1,1,01,13,78,319,10,7*45
$GAGSV,2,1,07,03,16,073,,05,05,026,,08,10,121,,15,37,059,,0*73
